feature_name,address,city,state,side,category,group_class,year_dedicated,year_rededicated,latitude,longitude
"""Comrades"" Confederate Monument",Court Square,Troy,AL,South,Monument,Monument,1908,NA,31.80758,-85.971835
"10"" Rifled Sea Coast Columbiad",65 Government Street,Mobile,AL,South,Monument,Monument,2004,NA,30.682866,-88.064809
Admiral Raphael Semmes Statue,65 Government Street,Mobile,AL,South,Monument,Monument,2000,NA,30.682866,-88.064809
Alabama Coat of Arms,NA,Montgomery,AL,South,Flag,Flag,1923,NA,32.3440112,-86.386467
Beauregard Elementary School,300 Lee Rd 431,Opelika,AL,South,School,School,NA,NA,32.5502439,-85.3739867
Beauregard High School,7343 Al Hwy 51,Opelika,AL,South,School,School,1923,NA,32.5504303,-85.3723297
Beauregard Street,NA,Montgomery,AL,South,Road / Street / Highway,Highway / Roadway,NA,NA,32.3696245,-86.2876887
Beauregard Street,NA,Dauphin Island,AL,South,Road / Street / Highway,Highway / Roadway,NA,NA,30.2482784,-88.0964263
Beauregard Street,NA,Mobile,AL,South,Road / Street / Highway,Highway / Roadway,NA,NA,30.6989638,-88.0506971
"Beauregard, AL (unincorporated area in Lee County)",NA,Beauregard,AL,South,Municipality,Municipality,NA,NA,32.5430599,-85.37083
Breastworks Confederate Memorial,West Pettus St.,Demopolis,AL,South,Monument,Monument,1941,NA,32.5102735,-87.8417859
Bullock County,NA,Union Springs,AL,South,County,County,1866,NA,32.144316,-85.7149495
Butler County Confederate Memorial,South Park Street & West Commerce Street,Greenville,AL,South,Monument,Monument,1903,NA,31.8295972,-86.6177517
Chilton County,NA,Clanton,AL,South,County,County,1868,NA,32.8387371,-86.6294262
City of Clanton,NA,Clanton,AL,South,Municipality,Municipality,1866,NA,32.839697,-86.6296943
City of Wheeler,NA,Wheeler,AL,South,Municipality,Municipality,NA,NA,34.7855778,-87.3873598
Cleburne County,NA,Heflin,AL,South,County,County,1866,NA,33.6444926,-85.5842385
Confederate Circle,NA,Monroeville,AL,South,Road / Street / Highway,Highway / Roadway,NA,NA,31.5140323,-87.3337914
Confederate Memorial,"Pickens County Courthouse; 100 Court Square, Carrollton, AL 35447",Carrollton,AL,South,Monument / Courthouse,Monument,1927,NA,33.26197,-88.094806
Confederate Memorial,Cherokee County Courthouse,Centre,AL,South,Monument / Courthouse,Monument,1988,NA,34.152171,-85.678933
Confederate Memorial Park,437 Co Rd 63,Marbury,AL,South,Park,Park,NA,NA,32.718869,-86.4740059
Confederate Monument,North Main And West Capitol,Demopolis,AL,South,Monument,Monument,1910,NA,32.5176361,-87.836402
Confederate Monument,Broad Ave And Eufaula Ave.,Eufaula,AL,South,Monument,Monument,1904,NA,31.7840963,-85.1745196
Confederate Monument,Union Park,Fort Payne,AL,South,Monument,Monument,1913,NA,34.4442547,-85.7196893
Confederate Monument,3-75 Public Square W,Jacksonville,AL,South,Monument,Monument,1910,NA,33.813852,-85.761589
Confederate Monument,Monument Park. 8Th St. And Geneva Ave.,Opelika,AL,South,Monument,Monument,1911,NA,32.645549,-85.37669
Confederate Monument,Autauga County Courthouse.,Prattville,AL,South,Monument,Monument,1908,NA,32.463686,-86.47506
Confederate Monument,St. Clair County Courthouse,Ashville,AL,South,Monument / Courthouse,Monument,1923,NA,33.836704,-86.254766
Confederate Monument,Choctaw County Courthouse,Butler,AL,South,Monument / Courthouse,Monument,1937,NA,32.089542,-88.221674
Confederate Monument,Morgan County Courthouse,Decatur,AL,South,Monument / Courthouse,Monument,1908,NA,34.6059253,-86.9833417
Confederate Monument,Fayette County Courthouse. West Columbus St. And South Temple Ave.,Fayette,AL,South,Monument / Courthouse,Monument,1929,NA,33.6658581,-87.8358652
Confederate Monument,Lauderdale County Courthouse. S. Court And E. College,Florence,AL,South,Monument / Courthouse,Monument,1903,NA,34.79981,-87.677251
Confederate Monument,Hale County Courthouse,Greensboro,AL,South,Monument / Courthouse,Monument,1904,NA,32.7040333,-87.5929604
Confederate Monument,Walker County Courthouse,Jasper,AL,South,Monument / Courthouse,Monument,1907,NA,33.8312185,-87.2775053
Confederate Monument,Sumter County Courthouse,Livingston,AL,South,Monument / Courthouse,Monument,1909,NA,32.5843025,-88.1872475
Confederate Monument,Lawrence County Courthouse,Moulton,AL,South,Monument / Courthouse,Monument,2006,NA,34.4813377,-87.2941554
Confederate Monument,Alabama State Capitol,Montgomery,AL,South,Monument,Monument,1898,NA,32.3785885,-86.3031097
Confederate Monument,Bibb County Courthouse,Centreville,AL,South,Monument / Courthouse,Monument,1910,NA,32.945262,-87.135423
Confederate Park,"Main, Capitol, Walnut, And Washington Sts.",Demopolis,AL,South,Park,Park,1910,NA,32.5176361,-87.836402
Confederate Park,NA,Greenville,AL,South,Park,Park,NA,NA,31.829232,-86.6228423
Confederate Parkway,NA,McCalla,AL,South,Road / Street / Highway,Highway / Roadway,NA,NA,33.2496523,-87.0718524
Confederate Soldier Monument,Courthouse Square. Marion St. And Market St.,Athens,AL,South,Monument / Courthouse,Monument,1909,NA,34.803122,-86.971336
Confederate Soldiers & Sailors Monument,Linn Park,Birmingham,AL,South,Monument,Monument,1905,NA,31.2069601,-81.8005724
Confederate Veteran's Memorial,Madison County Courthouse,Huntsville,AL,South,Monument / Courthouse,Monument,1905,NA,34.7301036,-86.5858605
Confederate Veterans Bicentennial Memorial,"Military Street, Marion County Courthouse",Hamilton,AL,South,Monument,Monument,1977,NA,34.1048004,-87.9890672
Confederate Veterans Monument,Colbert County Courthouse,Tuscumbia,AL,South,Monument / Courthouse,Monument,1911,NA,34.7336711,-87.7059554
Dale County Confederate Soldiers Monument,Dale County Courthouse,Ozark,AL,South,Monument,Monument,1910,NA,31.458446,-85.640371
Defense of Selma Memorial,Range St. And 4Th Ave,Selma,AL,South,Monument,Monument,1907,NA,32.4253797,-87.0243108
Dexter Avenue Monument,Dexter Ave.,Montgomery,AL,South,Monument,Monument,1942,NA,32.3775427,-86.3048402
Edmund Pettus Bridge,NA,Selma,AL,South,Bridge,Bridge,1940,NA,32.4055203,-87.0184779
Emma Sansom and Nathan Bedford Forrest Monument,1St St. And Broad,Gadsden,AL,South,Monument,Monument,1907,NA,34.014264,-86.0066386
Forrest Drive,NA,Livingston,AL,South,Road / Street / Highway,Highway / Roadway,NA,NA,32.5671894,-88.2156654
Forrest Street,NA,Mobile,AL,South,Road / Street / Highway,Highway / Roadway,NA,NA,30.657864,-88.0796877
Fort Rucker,NA,Fort Rucker,AL,South,Military Base,Military Base,1942,NA,32.5102735,-87.8417859
General Joseph Wheeler,4401 Mclean Drive,Rogersville,AL,South,Monument,Monument,2006,NA,34.8107695,-87.3312277
General N.B. Forrest Captured Col. A.D. Straight monument,Al-9,Cedar Bluff,AL,South,Monument,Monument,1939,NA,34.2339086,-85.5412043
Hale County,NA,Greensboro,AL,South,County,County,1867,NA,32.7045753,-87.5958396
Henry County Confederate Memorial,Town Square,Headland,AL,South,Monument,Monument,1936,NA,31.351284,-85.3421559
Hood Street,NA,Livingston,AL,South,Road / Street / Highway,Highway / Roadway,NA,NA,32.5671894,-88.2156654
Jeb Stewart Place,NA,Ozark,AL,South,Road / Street / Highway,Highway / Roadway,NA,NA,31.423194,-85.6715527
Jeff Davis Street,NA,Fair Hope,AL,South,Road / Street / Highway,Highway / Roadway,NA,NA,30.528667,-87.886801
Jefferson Davis' Presidential Star,Alabama State Capitol,Montgomery,AL,South,Monument,Monument,1897,NA,32.3777375,-86.3002623
Jefferson Davis Avenue,NA,Montgomery,AL,South,Road / Street / Highway,Highway / Roadway,NA,NA,32.3661567,-86.3182802
Jefferson Davis Community College,220 Alco Drive,Brewton,AL,South,School,School,1965,NA,31.102184,-87.086582
Jefferson Davis Drive,NA,Livingston,AL,South,Road / Street / Highway,Highway / Roadway,NA,NA,32.5671894,-88.2156654
Jefferson Davis High School,3420 Carter Hill Rd,Montgomery,AL,South,School,School,1968,NA,32.3432121,-86.2629776
Jefferson Davis Highway,NA,NA,AL,South,Road / Street / Highway,Highway / Roadway,NA,NA,31.3389063,-88.0336117
Jefferson Davis Statue,Alabama State Capitol,Montgomery,AL,South,Monument,Monument,1940,NA,32.3778255,-86.3026864
Joe Wheeler State Park,4401 Mclean Dr.,Rogersville,AL,South,Park,Park,1949,NA,34.8172997,-87.3455753
"John Allan Wyeth — M.D., L.L.D. Marker",S. Bainbridge St. And Dexter Ave. Near Alabama State Capitol,Montgomery,AL,South,Monument,Monument,NA,NA,32.3668052,-86.2999689
Johnston Street,NA,Mobile,AL,South,Road / Street / Highway,Highway / Roadway,NA,NA,30.659535,-88.0792817
Lee County,NA,Opelika,AL,South,County,County,1866,NA,32.6454116,-85.3782795
Lee High School,2500 Meridian St,Hunstville,AL,South,School,School,1957,NA,34.755069399999996,-86.5782078
Lee Highway,NA,NA,AL,South,Road / Street / Highway,Highway / Roadway,NA,NA,34.6462562,-87.1552511
Lee Street,NA,Livingston,AL,South,Road / Street / Highway,Highway / Roadway,NA,NA,32.5671894,-88.2156654
Longstreet Drive,NA,Livingston,AL,South,Road / Street / Highway,Highway / Roadway,NA,NA,32.5671894,-88.2156654
Major John Pelham Monument,Quintard Ave.,Anniston,AL,South,Monument,Monument,1905,NA,33.6597806,-85.8268513
McFarland Park and Recreation Area,Mcfarland Park,Florence,AL,South,Park,Park,NA,NA,34.79981,-87.677251
Morgan Drive,NA,Livingston,AL,South,Road / Street / Highway,Highway / Roadway,NA,NA,32.5671894,-88.2156654
Polk Street,NA,Mobile,AL,South,Road / Street / Highway,Highway / Roadway,NA,NA,30.660413,-88.0791707
Prattville Dragoons Memorial Monument (SCV),Prattville Primary School. Washington St. And E. Fourth St.,Prattville,AL,South,Monument,Monument,2002,NA,32.462582,-86.469178
Robert E. Lee Drive,NA,Millbrook,AL,South,Road / Street / Highway,Highway / Roadway,NA,NA,32.493074,-86.3710383
Robert E. Lee Drive,NA,Gardendale,AL,South,Road / Street / Highway,Highway / Roadway,NA,NA,33.7335662,-86.8858629
Robert E. Lee Drive,NA,Hodges,AL,South,Road / Street / Highway,Highway / Roadway,NA,NA,34.3282178,-87.9402623
Robert E. Lee High School,225 Ann St.,Montgomery,AL,South,School,School,1955,NA,32.3782349,-86.2710571
Robert E. Lee Primary Elementary School,220 Baker Road,Satsuma,AL,South,School,School,2012,NA,30.8475166,-88.0674496
Robert E. Lee Statue,Robert E. Lee High School,Montgomery,AL,South,Monument,Monument,1908,NA,32.3668052,-86.2999689
Robert E. Lee Street,NA,Leeds,AL,South,Road / Street / Highway,Highway / Roadway,NA,NA,33.540379,-86.5650416
Robert E. Lee Street,NA,Mobile,AL,South,Road / Street / Highway,Highway / Roadway,NA,NA,30.6600403,-88.0779524
Robert Lee Street,NA,Trussville,AL,South,Road / Street / Highway,Highway / Roadway,NA,NA,33.6031539,-86.5715274
Robert Lee Street,NA,Monroeville,AL,South,Road / Street / Highway,Highway / Roadway,NA,NA,31.5140323,-87.3337914
Robinson Springs Camp Confederate Monument,5899 Main Street And Monument Drive,Millbrook,AL,South,Monument,Monument,1913,NA,32.5138166,-86.3801621
Selma Navy Yard Memorial,Water Ave. And Sylvan St.,Selma,AL,South,Monument,Monument,1917,NA,32.408747,-87.014033
Sons of Confederate Veterans Commemorative License Plate,NA,Montgomery,AL,South,Commemorative License Plate,Commemorative License Plate,NA,NA,32.3437215,-86.3861223
Stonewall Circle,NA,Ozark,AL,South,Road / Street / Highway,Highway / Roadway,NA,NA,31.4252885,-85.6707231
Stonewall Lane,NA,Monroeville,AL,South,Road / Street / Highway,Highway / Roadway,NA,NA,31.5140323,-87.3337914
Stonewall Street,NA,Livingston,AL,South,Road / Street / Highway,Highway / Roadway,NA,NA,32.5671894,-88.2156654
The Soldier Dead,NA,Hayneville,AL,NA,Monument,Monument,NA,NA,32.184052,-86.580709
Town of Midway Marker,Midway City Office Building. Railroad St.,Midway,AL,South,Monument,Monument,2010,NA,32.070202,-85.5242296
Turkey Town Monument,Us-411,Gadsden,AL,South,Monument,Monument,NA,NA,34.0631181,-85.9351704
Tuskegee Confederate Monument,Town Square,Tuskegee,AL,South,Monument,Monument,1906,NA,32.424077,-85.690782
University of Alabama Civil War Memorial,University Of Alabama,Tuscaloosa,AL,South,Monument,Monument,1914,NA,33.211112,-87.546123
Van Dorn Street,NA,Mobile,AL,South,Road / Street / Highway,Highway / Roadway,NA,NA,30.6587822,-88.0811886
Wheeler Lake,Tennessee River,Decatur,AL,South,River / Creek / Lake,Body of Water,1936,NA,34.8083333,-87.385522
Arkadelphia Confederate Monument,Clark County Courthouse,Arkadelphia,AR,South,Monument / Courthouse,Monument,1911,NA,34.118718,-93.050509
Batesville Confederate Monument,NA,Batesville,AR,South,Monument,Monument,1907,NA,35.769799,-91.6409721
Beauregard Drive,NA,Little Rock,AR,South,Road / Street / Highway,Highway / Roadway,NA,NA,34.723712,-92.1917342
Bentonville Confederate Monument,Town Square. Across From Benton County Courthouse.,Bentonville,AR,South,Monument,Monument,1908,NA,36.3728538,-94.2088172
Camden Confederate Women Monument,"Ouichita County Courthouse Lawn, Jefferson St. Between Harrison St. And Scott Alley",Camden,AR,South,Monument / Courthouse,Monument,1915,NA,33.584589,-92.830865
City of Forrest City,NA,Forrest City,AR,South,Municipality,Municipality,1870,NA,35.01,-90.788611
Claiborne Drive,NA,Little Rock,AR,South,Road / Street / Highway,Highway / Roadway,NA,NA,34.723712,-92.1917342
Confederate Bench,"503 E 9th St, MacArthur Museum of Arkansas Military History also known as the City Park, the Arsenal, MacArthur Park",Little Rock,AR,South,Monument,Monument,1936,NA,34.7464809,-92.2895948
Confederate Captain Richard Tunball Banks Monument,NA,New Edinburg,AR,South,Monument,Monument,1864,NA,33.7573332,-92.2382185
Confederate Drive,NA,Forrest City,AR,South,Road / Street / Highway,Highway / Roadway,NA,NA,35.0314759,-90.7941693
Confederate Monument,Mississippi County Courthouse,Osceola,AR,South,Monument / Courthouse,Monument,1934,NA,35.7032472,-89.9706673
Confederate Mothers Memorial Park,Jct. Of Ar 326 And S. Glenwood Ave.,Russellville,AR,South,Park,Park,NA,NA,35.2699881,-93.1397399
Confederate Soldiers Memorial,"On the grounds of the Arkansas State Capitol, Woodlane St & W. 4th St",Little Rock,AR,South,Monument,Monument,1905,NA,34.7464809,-92.2895948
Confederate Soldiers Monument,801 Locust St,Conway,AR,South,Monument / Courthouse,Monument,1925,NA,35.088889,-92.442778
Confederate Street,NA,Lake Village,AR,South,Road / Street / Highway,Highway / Roadway,NA,NA,33.3352558,-91.2859922
Confederate Veterans Memorial,Boone County Courthouse,Harrison,AR,South,Monument,Monument,1986,NA,36.2297936,-93.1076765
Confederate Veterans’ Memorial,NA,Benton,AR,South,Monument,Monument,NA,NA,34.5645371,-92.586828
Confederate War Memorial,NA,Prescott,AR,South,Monument,Monument,1964,NA,33.8026107,-93.3810057
Confederate War Memorial,NA,Smithville,AR,South,Monument,Monument,1996,NA,36.0803484,-91.3037428
Confederate War Memorial,Mississippi County Courthouse,Blytheville,AR,South,Monument / Courthouse,Monument,1934,NA,35.92881,-89.905192
Confederate War Prisoners Memorial,Arkansas State Capitol,Little Rock,AR,South,Monument,Monument,NA,NA,34.7463174,-92.2912127
Crittenden County Civil War Memorial,Crittenden County Court House,Marion,AR,South,Monument / Courthouse,Monument,1936,NA,35.206111,-90.201667
Dardanelle Confederate Monument,"NW Corner Of Courthouse Lawn, Near Jct. Of Union And Front Sts.",Dardanelle,AR,South,Monument,Monument,1921,NA,35.2231408,-93.1579532
El Dorado Confederate Monument,"Courthouse Lawn, Near Jct. Of N. Main St. And S. Washington",El Dorado,AR,South,Monument / Courthouse,Monument,1909,NA,33.20763,-92.6662674
Forrest City High School,467 Victoria St,Forrest City,AR,South,School,School,1914,NA,35.0206724,-90.7952944
Forrest City Jr. High School,1133 North Division St,Forrest City,AR,South,School,School,NA,NA,35.0208554,-90.7898214
Forrest Park Prep Preschool,1903 West 34Th St,Pine Bluff,AR,South,School,School,NA,NA,34.195065,-92.0213597
Fort Smith Confederate Monument,"Courthouse Lawn, Near Jct. Of 6Th St. And Rogers Ave.",Fort Smith,AR,South,Monument / Courthouse,Monument,1903,NA,35.3859242,-94.3985475
General Robert E. Lee Monument,City Park,Marianna,AR,South,Monument,Monument,1913,NA,34.7737082,-90.7576112
General Thomas J. Churchill Memorial,"300 W Markham St, Old State House Museum",Little Rock,AR,South,Monument,Monument,1928,NA,34.7464809,-92.2895948
General William Read Scurry Memorial,"300 W Markham St, Old State House Museum",Little Rock,AR,South,Monument,Monument,1928,NA,34.7464809,-92.2895948
Hot Springs Confederate Monument,Landmark Plaza,Hot Springs,AR,South,Monument,Monument,1934,NA,34.4922962,-93.0616741
Jackson County Confederate Memorial,"Jacksonport State Park. End Of Mall, Washington St And Avenue St.",Jacksonport,AR,South,Monument,Monument,1914,NA,35.6417455,-91.3095737
Jeb Stuart Drive,NA,Wilson,AR,South,Road / Street / Highway,Highway / Roadway,NA,NA,35.5743845,-90.0470715
Jeff Davis Avenue,NA,Jacksonville,AR,South,Road / Street / Highway,Highway / Roadway,NA,NA,34.867328,-92.1223912
Jeff Davis Street,NA,Hughes,AR,South,Road / Street / Highway,Highway / Roadway,NA,NA,34.9493997,-90.4737996
Jefferson Davis Memorial,NA,Fort Smith,AR,South,Monument,Monument,1937,NA,35.3859242,-94.3985475
Jefferson Davis Road,NA,Heber Springs,AR,South,Road / Street / Highway,Highway / Roadway,NA,NA,35.4451512,-92.0493893
Lake Village Confederate Monument,Chicot County Courthouse. Lakehore.,Lake Village,AR,South,Monument / Courthouse,Monument,1910,NA,33.3314091,-91.2842212
Lee County,NA,Marianna,AR,South,County,County,1873,NA,34.7737082,-90.7576112
Longstreet Drive,NA,Little Rock,AR,South,Road / Street / Highway,Highway / Roadway,NA,NA,34.723712,-92.1917342
Lonoke Confederate Monument,"Courthouse Lawn, Near Jct. Of 3Rd And Center Sts.",Lonoke,AR,South,Monument / Courthouse,Monument,1910,NA,34.7862261,-91.899829
Memorial to Company A Confederate Soldiers,Mcarthur Park. Northeast Corner Of Museum Of Natural History,Little Rock,AR,South,Monument,Monument,1911,NA,34.7464809,-92.2895948
Monument to Confederate Soldiers,Arkansas State Capitol. North Lawn At 7Th St.,Little Rock,AR,South,Monument,Monument,1905,NA,34.7463174,-92.2912127
Monument to Confederate Women,"State Capitol Grounds, Jct. Of W. 7Th And And Marshall Sts.",Little Rock,AR,South,Monument,Monument,1913,NA,34.7463174,-92.2912127
Pickett Drive,NA,Little Rock,AR,South,Road / Street / Highway,Highway / Roadway,NA,NA,34.723712,-92.1917342
Pine Bluff Confederate Monument,"North Side Of Jefferson Cty. Courthouse, Jct. Of Barraque And Main Sts.",Pine Bluff,AR,South,Monument,Monument,1910,NA,34.229979,-92.003288
Robert E. Lee Elem. School,400 Quandt,Springdale,AR,South,School,School,1951,NA,36.1794968,-94.1344681
Robert E. Lee Street,NA,El Dorado,AR,South,Road / Street / Highway,Highway / Roadway,NA,NA,33.2010405,-92.6819771
Robert E. Lee Street,NA,Malvern,AR,South,Road / Street / Highway,Highway / Roadway,NA,NA,34.3595314,-92.7952081
Searcy Confederate Monument,"Courthouse Lawn, Near Jct. Of W. Arch Ave. And Spring St.",Searcy,AR,South,Monument / Courthouse,Monument,1917,NA,35.2501027,-91.7398996
Southern Soldiers Memorial,"300 W Markham St, Old State House Museum",Little Rock,AR,South,Monument,Monument,NA,NA,34.7464809,-92.2895948
Star City Confederate Memorial,Sw Corner Of Star City City Sq.,Star City,AR,South,Monument,Monument,1928,NA,33.9941928,-91.845844
Texas Memorial,NA,Pea Ridge,AR,South,Monument,Monument,1964,NA,36.447778,-94.116667
Van Buren Confederate Monument,Crawford County Courthouse,Van Buren,AR,South,Monument / Courthouse,Monument,1899,NA,35.436756,-94.348268
Confederate Memorial,NA,Picacho Pass,AZ,Not a State,Monument,Monument,NA,NA,34.0489281,-111.0937311
Confederate Troops Memorial,Wesley Bolin Memorial Plaza,Phoenix,AZ,Not a State,Monument,Monument,1961,NA,33.8546321,-112.1182618
Jefferson Davis Highway,NA,NA,AZ,Not a State,Road / Street / Highway,Highway / Roadway,1943,NA,31.62959,-110.049257
City of Confederate Corners,NA,Confederate Corners,CA,North,Municipality,Municipality,1865,NA,36.64472,-121.66333
City of Fort Bragg,NA,Fort Bragg,CA,North,Municipality,Municipality,1889,NA,39.3769763,-123.687054
Jefferson Davis Highway,NA,San Diego,CA,North,Road / Street / Highway,Highway / Roadway,NA,NA,32.7141629,-117.1646343
Johnston Street,NA,Los Angeles,CA,North,Road / Street / Highway,Highway / Roadway,NA,NA,34.0756003,-118.2167141
Robert E. Lee Elementary,1620 Temple Avenue,Long Beach,CA,North,School,School,NA,NA,33.7873987,-118.1588857
Robert E. Lee Elementary School,6196 Childs Ave.,San Diego,CA,North,School,School,1959,NA,32.6704766,-117.0560975
Fighting Joe Wheeler Statue,U.S. Capitol,Washington,DC,Border,Monument,Monument,1925,NA,38.8899396,-77.0093252
Jefferson Davis Senate Desk reserved for Senior Senator of Mississippi,NA,NA,DC,Border,Monument,Monument,NA,NA,38.8992651,-77.1546507
Baker County,NA,Macclenny,FL,South,County,County,1861,NA,30.2821807,-82.1220569
Bradford County,NA,Starke,FL,South,County,County,1861,NA,29.9441298,-82.1098275
Confederate Memorial,Magnolia Avenue,Orlando,FL,South,Monument,Monument,1911,NA,28.5584155,-81.3769236
Confederate Memorial,Lee Square,Pensacola,FL,South,Monument,Monument,1891,NA,30.419909,-87.21703
Confederate Memorial,On East Side Of I-75 Immediately South Of Exit 439 Interchange (County Road 136),White Springs,FL,South,Monument,Monument,2002,NA,30.314845,-82.803738
Confederate Monument,Munn Park,Lakeland,FL,South,Monument,Monument,1910,NA,28.0394654,-81.9498042
Confederate Monument,Four Freedoms Park,Madison,FL,South,Monument,Monument,NA,NA,30.4693772,-83.4129254
Confederate Monument,Hwy. 27,Perry,FL,South,Monument,Monument,NA,NA,30.136787000000002,-83.60444
Confederate Monument,La Plaza Del Constitucion,St. Augustine,FL,South,Monument,Monument,1879,NA,29.8925,-81.311937
Confederate Monument,Veterans' Park,St. Cloud,FL,South,Monument,Monument,2006,NA,28.245722,-81.28271
Confederate Monument,Manatee County Courthouse,Bradenton,FL,South,Monument / Courthouse,Monument,1924,NA,27.494969,-82.5733
Confederate Monument,Jackson County Courthouse,Marianna,FL,South,Monument / Courthouse,Monument,1881,NA,30.7737466,-85.2286117
Confederate Monument,Jefferson County Courthouse,Monticello,FL,South,Monument / Courthouse,Monument,1899,NA,30.5452022,-83.8701636
Confederate Monument,Putnam County Courthouse,Palatka,FL,South,Monument / Courthouse,Monument,1956,NA,29.6471046,-81.6349554
Confederate Monument,Gadsden County Courthouse,Quincy,FL,South,Monument / Courthouse,Monument,1884,NA,30.5886232,-84.5769272
Confederate Monument,Alachua County Administration Building,Gainesville,FL,South,Monument,Monument,1904,NA,29.6516344,-82.3248262
Confederate Oak,Sugar Mill Botanical Gardens,Port Orange,FL,South,Tree,Other,NA,NA,29.1383165,-80.9956105
Confederate Park,North Ferdon Blvd And East 1St Avenue,Crestview,FL,South,Park,Park,1958,NA,30.765675,-86.555243
Confederate Park,956 Hubbard Street,Jacksonville,FL,South,Park,Park,1907,NA,30.3341758,-81.6543625
Confederate Park Monument,North Ferdon Blvd And East 1St Avenue,Crestview,FL,South,Monument,Monument,1958,NA,30.765675,-86.555243
Confederate Point Road,NA,Jacksonville,FL,South,Road / Street / Highway,Highway / Roadway,NA,NA,30.2639385,-81.7349302
Confederate Soldier,Hernando County Courthouse. 20 N. Main St.,Brooksville,FL,South,Monument / Courthouse,Monument,1916,NA,28.555039,-82.387683
Confederate Soldiers Monument,Hillsborough County Courthouse. 419 Pierce St.,Tampa,FL,South,Monument / Courthouse,Monument,1911,NA,27.9496875,-82.4544898
Confederate Street,NA,Jacksonville,FL,South,Road / Street / Highway,Highway / Roadway,NA,NA,30.3342355,-81.6549769
Confederate Veterans,J. Saxton Loyd Riverfront Park,Daytona Beach,FL,South,Monument,Monument,1979,NA,29.2108147,-81.0228331
Confederate War Memorial,"4409 Lafayette Street, Confederate Park",Marianna,FL,South,Monument,Monument,1921,NA,30.7743596,-85.2268735
Florida Confederate Soldiers Memorial,Hemming Park,Jacksonville,FL,South,Monument,Monument,1899,NA,30.3321838,-81.655651
Forrest Street,NA,Hollywood,FL,South,Road / Street / Highway,Highway / Roadway,NA,NA,26.0361088,-80.2257367
General Lee Road,NA,Jacksonville,FL,South,Road / Street / Highway,Highway / Roadway,NA,NA,30.357684,-81.7542911
General Lee Road,NA,Hilliard,FL,South,Road / Street / Highway,Highway / Roadway,NA,NA,30.7276985,-81.9856389
Hemming Park,NA,Jacksonville,FL,South,Park,Park,1898,NA,30.3292994,-81.6592392
Hendry County,NA,LaBelle,FL,South,County,County,1923,NA,26.7617322,-81.4384092
Jeb Stuart Middle School,4815 Wesconnett Blvd,Jacksonville,FL,South,School,School,NA,NA,30.2534332,-81.7368774
Jeff Davis Drive,NA,Zephyrhills,FL,South,Road / Street / Highway,Highway / Roadway,NA,NA,28.2729436,-82.1795332
Jefferson Davis Middle School,7050 Melvin Rd,Jacksonville,FL,South,School,School,NA,NA,30.2544212,-81.7606735
Johnny Reb Monument,Ocala-Marion County Veterans Memorial Park,Ocala,FL,South,Monument / Courthouse,Monument,1908,NA,29.185649,-82.103965
Judah P. Benjamin Confederate Memorial,Gamble Plantation State Historic Site,Ellenton,FL,South,Monument,Monument,1925,NA,27.521705,-82.5275963
Judah P. Benjamin Confederate Memorial at Gamble Plantation Historic State Park,NA,Manatee,FL,South,Park,Park,1925,NA,27.5242341,-82.5261936
Lee County,NA,Fort Myers,FL,South,County,County,1887,NA,26.640628,-81.8723084
Lee Elementary School of Technology / World Studies,305 East Columbus Drive,Tampa,FL,South,School,School,1943,NA,27.9662571,-82.4572754
Lee Square,NA,Pensacola,FL,South,Park,Park,1889,NA,30.4197381,-87.2171951
Lee Street,NA,Hollywood,FL,South,Road / Street / Highway,Highway / Roadway,NA,NA,26.0297388,-80.2210197
Monument to Women of the Confederacy,"956 Hubbard Street, Confederate Park",Jacksonville,FL,South,Monument,Monument,1914,NA,30.3345089,-81.6538177
North Jeff Davis Avenue,NA,Perry,FL,South,Road / Street / Highway,Highway / Roadway,NA,NA,30.1187382,-83.5805227
Pasco County,NA,Dade City,FL,South,County,County,1887,NA,28.3647248,-82.1959178
Robert E. Lee Drive,NA,East Palatka,FL,South,Road / Street / Highway,Highway / Roadway,NA,NA,29.702675,-81.5633091
Robert E. Lee High School,1200 Mcduff Ave S,Jacksonville,FL,South,School,School,1928,NA,30.3070087,-81.7042007
Robert E. Lee Lane,NA,Macclenny,FL,South,Road / Street / Highway,Highway / Roadway,NA,NA,30.2501234,-82.1526091
Robert E. Lee Middle School,1201 Maury Rd,Orlando,FL,South,School,School,1956,NA,28.5841026,-81.3972092
Robert E. Lee Park,Nw 6Th Avenue And Nw 30Th Street,Miami,FL,South,Park,Park,NA,NA,25.8043802,-80.2236631
Robert E. Lee Road,NA,Tampa,FL,South,Road / Street / Highway,Highway / Roadway,NA,NA,28.023737,-82.3690107
Robert Lee Road,NA,St. Cloud,FL,South,Road / Street / Highway,Highway / Roadway,NA,NA,28.1839558,-81.1755541
Southeast General Lee Terrace,NA,Stuart,FL,South,Road / Street / Highway,Highway / Roadway,NA,NA,27.152054,-80.1756677
Stonewall Jackson Elementary School,6127 Cedar Hills Blvd,Jacksonville,FL,South,School,School,NA,NA,30.267228,-81.7416226
Stonewall Jackson Middle School,6000 Stonewall Jackson Rd,Orlando,FL,South,School,School,1964,NA,28.5299644,-81.3032455
Stonewall Jackson Road,NA,Orlando,FL,South,Road / Street / Highway,Highway / Roadway,NA,NA,28.5317445,-81.3052405
Walton County Confederate Monument,Walton County Courthouse,Defuniak Springs,FL,South,Monument / Courthouse,Monument,1871,NA,30.7210227,-86.1152184
Walton County Flag,Walton County Courthouse,Defuniak Springs,FL,South,Flag / Courthouse,Flag,1871,NA,30.7210227,-86.1152184
Yellow Bluff Fort Monument,Yellow Bluff Fort Park,Jacksonville,FL,South,Monument,Monument,1950,NA,30.3321838,-81.655651
At Rest Arms Monument,Courthouse Square,Thomaston,GA,South,Monument / Courthouse,Monument,1908,NA,32.8881879,-84.3265854
Augusta Confederate Monument,"700 Block, Broad Street",Augusta,GA,South,Monument,Monument,1878,NA,33.4734978,-82.0105148
Bartow County,NA,Cartersville,GA,South,County,County,1861,NA,34.1650972,-84.7999382
Bartow County Confederate Monument,Bartow County Courthouse,Cartersville,GA,South,Monument,Monument,1908,NA,34.1650972,-84.7999382
Beauregard Street,NA,Savannah,GA,South,Road / Street / Highway,Highway / Roadway,NA,NA,32.0127438,-81.1022118
Bedford Forrest Drive,NA,Sharpsburg,GA,South,Road / Street / Highway,Highway / Roadway,NA,NA,33.3617623,-84.6674711
Ben Hill County,NA,Fitzgerald,GA,South,County,County,1956,NA,31.7149082,-83.2526545
Ben Hill Street,NA,LaGrange,GA,South,Road / Street / Highway,Highway / Roadway,NA,NA,33.0407886,-85.0395194
Bibb County Confederate Monument,Cotton Ave. And Second St.,Macon,GA,South,Monument,Monument,1879,NA,32.8313472,-83.6334438
Birthplace of Lucius Quintus Cincinnatus Lamar,Courthouse,Eatonton,GA,South,Monument / Courthouse,Monument,1936,NA,33.3267997,-83.3884961
Bleckley County,NA,Cochran,GA,South,County,County,1985,NA,32.396839,-83.35319
Bleckley County Confederate Monument,Dykes St. And Second St.,Cochran,GA,South,Monument,Monument,1910,NA,32.3929685,-83.3601884
Bragg Street,NA,Fitzgerald,GA,South,Road / Street / Highway,Highway / Roadway,NA,NA,31.7194049,-83.2624435
Brigadier General Alfred Iverson Jr.,248 Oakland Avenue Se,Atlanta,GA,South,Monument,Monument,NA,NA,33.748727,-84.3731212
Calhoun Veterans Monument,Rte. 41 And 225,Calhoun,GA,South,Monument,Monument,1927,NA,34.502587,-84.9510542
Candler Hall at the University of Georgia,University Of Georgia Campus,Athens,GA,South,Building,Other,1901,NA,33.957276,-83.375797
Colonel Francis S. Bartow Bust,Forsyth Park. Bull St.,Savannah,GA,South,Monument,Monument,1902,NA,32.0549595,-81.1011279
Colquitt County Confederate Monument,Courthouse Square,Moultrie,GA,South,Monument / Courthouse,Monument,1909,NA,31.1795176,-83.7904437
Confederate Avenue,NA,Dallas,GA,South,Road / Street / Highway,Highway / Roadway,NA,NA,33.9288179,-84.8435624
Confederate Flag,Rabun County Courthouse,Clayton,GA,South,Flag / Courthouse,Flag,NA,NA,34.8781479,-83.4009933
Confederate Flagpole,Early County Courthouse,Blakely,GA,South,Monument / Courthouse,Monument,1861,NA,31.377951,-84.934377
Confederate Memorial,Grady County Courthouse,Cairo,GA,South,Flag / Courthouse,Flag,NA,NA,30.8774132,-84.2012897
Confederate Memorial,Forsyth Park,Savannah,GA,South,Monument,Monument,1875,NA,32.067312,-81.09633
Confederate Memorial,North Oak Street,Springfield,GA,South,Monument,Monument,1923,NA,32.373545,-81.314378
Confederate Memorial,Wilcox County Library,Abbeville,GA,South,Monument,Monument,1909,NA,31.9924574,-83.3069314
Confederate Memorial Arch,Brown Park,Canton,GA,South,Monument,Monument,1923,NA,34.2367621,-84.4907621
Confederate Memorial Drinking Fountain,Courthouse Traffic Circle,McDonough,GA,South,Monument / Courthouse,Monument,1915,NA,33.4473361,-84.1468616
Confederate Memorial Fountain,S. Jefferson Street,Milledgeville,GA,South,Monument,Monument,1912,NA,33.0705366,-83.2222728
Confederate Monument,Rees Park,Americus,GA,South,Monument,Monument,1900,NA,32.0723861,-84.2326876
Confederate Monument,Willis Park,Bainbridge,GA,South,Monument,Monument,1936,NA,30.9037995,-84.5754699
Confederate Monument,Memorial Park. Taylor St. And Memorial Dr.,Griffin,GA,South,Monument,Monument,1909,NA,33.2384669,-84.2452684
Confederate Monument,Carroll County Courthouse,Carrollton,GA,South,Monument / Courthouse,Monument,1910,NA,33.579771,-85.07324
Confederate Monument,Rockdale County Courthouse,Conyers,GA,South,Monument / Courthouse,Monument,1913,NA,33.6676103,-84.0176904
Confederate Monument,Taliaferro County Courthouse,Crawfordville,GA,South,Monument / Courthouse,Monument,1898,NA,33.5540209,-82.8959785
Confederate Monument,Monroe County Courthouse,Forsyth,GA,South,Monument / Courthouse,Monument,1907,NA,33.0342974,-83.938242
Confederate Monument,Hart County Courthouse,Hartwell,GA,South,Monument / Courthouse,Monument,1908,NA,34.3528825,-82.932087
Confederate Monument,Pulaski County Courthouse,Hawkinsville,GA,South,Monument / Courthouse,Monument,1908,NA,32.2837731,-83.4721177
Confederate Monument,Walton County Courthouse,Monroe,GA,South,Monument / Courthouse,Monument,1907,NA,33.7948364,-83.713229
Confederate Monument,Montgomery County Courthouse,Mount Vernon,GA,South,Monument / Courthouse,Monument,1997,NA,32.1742045,-82.5968887
Confederate Monument,Brooks County Courthouse,Quitman,GA,South,Monument / Courthouse,Monument,1878,NA,30.7849191,-83.5598811
Confederate Monument,Spotsylvania County Courthouse,Spotsylvania,GA,South,Monument / Courthouse,Monument,1918,NA,38.2026432,-77.5853267
Confederate Monument,Bulloch County Courthouse,Statesboro,GA,South,Monument / Courthouse,Monument,1909,NA,32.4487876,-81.7831674
Confederate Monument of Eastman,Dodge County Courthouse Square,Eastman,GA,South,Monument / Courthouse,Monument,1910,NA,32.2009518,-83.1754607
Confederate Reunion Memorial,Lamb Avenue And Moody Street,Union Point,GA,South,Monument,Monument,1874,NA,33.612761,-83.073157
Confederate Soldier,Peterson Ave. And Ward St.,Douglas,GA,South,Monument,Monument,1911,NA,31.5097434,-82.8618043
Confederate Veterans Monument,Chattahoochee County Courthouse,Cusseta,GA,South,Monument / Courthouse,Monument,NA,NA,32.3061354,-84.7770485
Confederate War Memorial,Courthouse Square,Covington,GA,South,Monument / Courthouse,Monument,1906,NA,33.5967815,-83.8601827
Confederate War Memorial,Douglas County Courthouse,Douglasville,GA,South,Monument / Courthouse,Monument,1914,NA,33.7514966,-84.7477136
Confederate Wayside Home Monument,Fluker Street And Sibley Avenue,Union Point,GA,South,Monument,Monument,1936,NA,33.615207,-83.075934
Confederate Women Fountain (Women of the Sixties),Main St. And Railroad St.,Thomson,GA,South,Monument,Monument,1916,NA,33.465878,-82.502197
Cook County,NA,Adel,GA,South,County,County,1918,NA,31.1371358,-83.4234936
Crisp County Confederate Monument,Community Clubhouse. Corner Of 16Th Ave. And 7Th St.,Cordele,GA,South,Monument,Monument,1911,NA,31.9802949,-83.7828398
Davis Elementary School,5491 Hwy 301,Trenton,GA,South,School,School,NA,NA,34.8866397,-85.5493871
Dooly County Confederate Monument,Dooly County Courthouse,Vienna,GA,South,Monument / Courthouse,Monument,1908,NA,32.0910883,-83.7987974
Early Street,NA,Savannah,GA,South,Road / Street / Highway,Highway / Roadway,NA,NA,32.0178032,-81.1068643
Eatonton Confederate Monument,108 South Madison Ave. And West Marion St. Across From Courthouse,Eatonton,GA,South,Monument,Monument,1908,NA,33.3267997,-83.3884961
Elbert County Confederate Monument,Sutton Square,Elberton,GA,South,Monument,Monument,1898,NA,34.1275536,-82.8551312
Eternal Flame of the Confederacy,Underground - Five Points Marta,Atlanta,GA,South,Monument,Monument,1939,NA,33.7541414,-84.3921185
First Confederate Hospital of the Civil War,W. Main St. At Park St.,Kingston,GA,South,Monument,Monument,NA,NA,34.2356712,-84.9458867
Forrest Road,NA,Fort Oglethorpe,GA,South,Road / Street / Highway,Highway / Roadway,NA,NA,34.9456442,-85.2542904
Fort Benning,NA,Fort Benning,GA,South,Military Base,Military Base,1918,NA,32.3523691,-84.9688191
Fort Gordon,NA,Fort Gordon,GA,South,Military Base,Military Base,1917,NA,33.420972,-82.1620645
Franklin County Confederate Monument,Franklin County Courthouse Front Walkway,Carnesville,GA,South,Monument / Courthouse,Monument,1910,NA,34.369839,-83.234982
General Johnston Headquarters,314 N. Selvidge St.,Dalton,GA,South,Monument,Monument,NA,NA,34.775697,-84.969176
General Lafayette McLaws Bust,Forsyth Park,Savannah,GA,South,Monument,Monument,1902,NA,32.067312,-81.09633
General Lee Drive,NA,Newnan,GA,South,Road / Street / Highway,Highway / Roadway,NA,NA,33.4155868,-84.7094593
General Lee Road,NA,Warner Robins,GA,South,Road / Street / Highway,Highway / Roadway,NA,NA,32.6536698,-83.6684524
General Lee Road,NA,Macon,GA,South,Road / Street / Highway,Highway / Roadway,NA,NA,32.8664428,-83.6724586
General Lee Way,NA,Buford,GA,South,Road / Street / Highway,Highway / Roadway,NA,NA,34.0742351,-83.9311535
General Longstreet Line,NA,Newnan,GA,South,Road / Street / Highway,Highway / Roadway,NA,NA,33.4086631,-84.7055965
General Robert E. Lee Road,NA,Brunswick,GA,South,Road / Street / Highway,Highway / Roadway,NA,NA,31.2437534,-81.542721
Glynn County Confederate Monument,Hanover Square,Brunswick,GA,South,Monument,Monument,1902,NA,31.1499528,-81.4914894
Gordon Street,NA,Fitzgerald,GA,South,Road / Street / Highway,Highway / Roadway,NA,NA,31.7194193,-83.2611596
Greene County Confederate Monument,Courthouse Square. Main St.,Greensboro,GA,South,Monument / Courthouse,Monument,1898,NA,33.5764401,-83.1830977
Hall County Confederate Monument,Public Square,Gainesville,GA,South,Monument,Monument,1909,NA,34.2978794,-83.8240663
Hampton Street,NA,Savannah,GA,South,Road / Street / Highway,Highway / Roadway,NA,NA,32.0127438,-81.1022118
Hancock County Confederate Monument,Hancock County Courthouse. Confederate Park Hwy. 22,Sparta,GA,South,Monument / Courthouse,Monument,1881,NA,33.2757006,-82.9762589
Heard County Confederate Monument,Veterans Park,Franklin,GA,South,Monument,Monument,1999,NA,33.2776182,-85.0979973
Hill Street,NA,Fitzgerald,GA,South,Road / Street / Highway,Highway / Roadway,NA,NA,31.7193951,-83.263695
Hood Avenue,NA,Forest Park,GA,South,Road / Street / Highway,Highway / Roadway,1957,NA,33.6202063,-84.3288908
Houston County Confederate Monument,Courthouse Square. Ball St. And Carroll St.,Perry,GA,South,Monument / Courthouse,Monument,1908,NA,32.4579864,-83.7344478
Irwin County Confederate Monument,Courthouse Square. Second St. And Irwin Sr.,Ocilla,GA,South,Monument / Courthouse,Monument,1911,NA,31.5919811,-83.2513472
Jackson Boulevard,NA,Savannah,GA,South,Road / Street / Highway,Highway / Roadway,NA,NA,32.0127438,-81.1022118
Jackson County Confederate Monument,"Town Square, Sycamore St",Jefferson,GA,South,Monument,Monument,1911,NA,34.1170537,-83.5723876
Jackson Street,NA,Fitzgerald,GA,South,Road / Street / Highway,Highway / Roadway,NA,NA,31.71016,-83.2584747
Jasper County Confederate Monument,Town Square,Monticello,GA,South,Monument,Monument,1910,NA,33.3048479,-83.6832289
Jeb Stuart Drive,NA,Newnan,GA,South,Road / Street / Highway,Highway / Roadway,NA,NA,33.4124116,-84.7129692
Jeb Stuart Drive,NA,Jonesboro,GA,South,Road / Street / Highway,Highway / Roadway,NA,NA,33.522457,-84.3692292
Jeb Stuart Drive,NA,Waycross,GA,South,Road / Street / Highway,Highway / Roadway,NA,NA,31.211101,-82.2933001
Jeff Davis Avenue,NA,Lyons,GA,South,Road / Street / Highway,Highway / Roadway,NA,NA,32.2155525,-82.3262611
Jeff Davis County,NA,Hazlehurst,GA,South,County,County,1905,NA,31.8696309,-82.5943026
Jeff Davis Drive,NA,Jonesboro,GA,South,Road / Street / Highway,Highway / Roadway,NA,NA,33.522457,-84.3692292
Jeff Davis Drive,NA,Fayetteville,GA,South,Road / Street / Highway,Highway / Roadway,NA,NA,33.4562666,-84.45237
Jeff Davis Elementary School,81 Pat Dixon Rd,Hazlehurst,GA,South,School,School,NA,NA,31.8640765,-82.6074383
Jeff Davis High School,156 Collins St,Hazlehurst,GA,South,School,School,NA,NA,31.8666782,-82.6127243
Jeff Davis Middle School,93 Collins St,Hazlehurst,GA,South,School,School,NA,NA,31.8669418,-82.6163486
Jeff Davis Park Road,NA,Fitzgerald,GA,South,Road / Street / Highway,Highway / Roadway,NA,NA,31.6842234,-83.385338
Jeff Davis Primary School,71 Burketts Ferry Rd,Hazlehurst,GA,South,School,School,NA,NA,31.872563,-82.6101199
Jeff Davis Road,NA,Thomaston,GA,South,Road / Street / Highway,Highway / Roadway,NA,NA,32.9459451,-84.3961982
Jeff Davis Road,NA,Franklin,GA,South,Road / Street / Highway,Highway / Roadway,NA,NA,33.2516895,-85.1337756
Jeff Davis Street,NA,Macon,GA,South,Road / Street / Highway,Highway / Roadway,NA,NA,32.8211953,-83.6491869
Jeff Davis Street,NA,Hazlehurst,GA,South,Road / Street / Highway,Highway / Roadway,NA,NA,31.8627594,-82.6003335
Jefferson Davis Bust,"Jeff Davis County Courthose, Jeff Davis Street",Hazlehurst,GA,South,Monument / Courthouse,Monument,NA,NA,31.8633489,-82.6033859
Jefferson Davis Drive,NA,Stone Mountain,GA,South,Road / Street / Highway,Highway / Roadway,NA,NA,33.8151315,-84.1397065
Jefferson Davis Highway,NA,NA,GA,South,Road / Street / Highway,Highway / Roadway,NA,NA,33.6030562,-83.8667421
Jefferson Davis Highway Marker,Johnson County Courthouse,Wrightsville,GA,South,Monument / Courthouse,Monument,NA,NA,32.7295865,-82.7195883
Jefferson Davis Memorial,Jeff Davis And South Tallahassee Street,Hazelhurst,GA,South,Monument,Monument,NA,NA,32.1656221,-82.9000751
Jefferson Davis Memorial,790-798 Jeff Davis Park Rd,Irwinville,GA,South,Monument,Monument,1935,NA,31.6395605,-83.4050969
Jefferson Davis Memorial Historic Site,338 Jeff Davis Park Road,Fitzgerald,GA,South,Park,Park,NA,NA,31.6632759,-83.3859781
Jefferson Davis Memorial Road,NA,Eastman,GA,South,Road / Street / Highway,Highway / Roadway,NA,NA,32.1496856,-83.1122481
Jefferson Davis Monument,"Jefferson Davis Memorial Historic Site, 338 Jeff Davis Park Road",Fitzgerald,GA,South,Monument,Monument,NA,NA,31.7149082,-83.2526545
Jefferson Davis Road,NA,Greensboro,GA,South,Road / Street / Highway,Highway / Roadway,NA,NA,33.60701,-83.3113314
Jenkins County Confederate Monument,Jenkins County Courthouse Square. Winthrop St. And Daniels St.,Millen,GA,South,Monument / Courthouse,Monument,1909,NA,32.8040512,-81.9492812
John B. Gordon Statue,Georgia State Capitol Grounds,Atlanta,GA,South,Monument,Monument,1907,NA,33.7489954,-84.3879824
Johnston Street,NA,Savannah,GA,South,Road / Street / Highway,Highway / Roadway,NA,NA,32.0178032,-81.1068643
Joseph E. Brown Hall at the University of Georgia,University Of Georgia Campus,Athens,GA,South,Building,Other,1932,NA,33.9480053,-83.3773221
Joseph E. Brown Middle School,225 James P Brawley Dr SW,Atlanta,GA,South,School,School,1924,NA,33.7333898,-84.4204601
Lamar County,NA,Barnesville,GA,South,County,County,1955,NA,33.0545709,-84.1557495
Laurens County Confederate Monument,Court House Square Corner of North Patterson Street & Central Avenue Valdosta Georgia,Dublin,GA,South,Monument / Courthouse,Monument,1912,NA,30.8305236,-83.2827229
Lawrenceville Confederate Memorial,Gwinnett County Historic Courthouse,Lawrenceville,GA,South,Monument / Courthouse,Monument,1990,NA,33.9562149,-83.9879625
Lee Boulevard,NA,Savannah,GA,South,Road / Street / Highway,Highway / Roadway,NA,NA,32.0178032,-81.1068643
Lee Street,NA,Fitzgerald,GA,South,Road / Street / Highway,Highway / Roadway,NA,NA,31.7101932,-83.2557952
Liberty County Confederate Monument,Liberty County Courthouse. Commerce St. And Midway St.,Hinesville,GA,South,Monument / Courthouse,Monument,1928,NA,31.8473296,-81.5954658
Lincoln County Confederate Monument,North Washington Street,Lincolnton,GA,South,Monument,Monument,NA,NA,33.7931119,-82.4794722
Logan Street,NA,Fitzgerald,GA,South,Road / Street / Highway,Highway / Roadway,NA,NA,31.7195461,-83.2477623
Longstreet Bridge,NA,Gainesville,GA,South,Bridge,Bridge,1957,NA,34.3484336,-83.8226789
Longstreet Street,NA,Fitzgerald,GA,South,Road / Street / Highway,Highway / Roadway,NA,NA,31.7194375,-83.2598709
Macon County Confederate Monument,Fanny Carmichael Park,Montezuma,GA,South,Monument,Monument,1911,NA,32.3051576,-84.0274072
McClaws Street,NA,Savannah,GA,South,Road / Street / Highway,Highway / Roadway,NA,NA,32.0178032,-81.1068643
McDuffie and Columbia Counties Confederate Monument,Old Mcduffie County Courthouse,Thomson,GA,South,Monument,Monument,1996,NA,33.469735,-82.504609
Monument to Butts County Confederate Soldiers,Jackson Courthouse,Jackson,GA,South,Monument / Courthouse,Monument,1911,NA,33.2945631,-83.9672222
Monument to the Confederate Soldier,Confederate Park. New Franklin Rd. & Smith St.,LaGrange,GA,South,Monument,Monument,1902,NA,33.0885454,-85.0300189
Morgan County Confederate Monument,Hill Park. S. Main St.,Madison,GA,South,Monument,Monument,1909,NA,33.5890962,-83.4747311
Mosby Street,NA,Savannah,GA,South,Road / Street / Highway,Highway / Roadway,NA,NA,32.0127438,-81.1022118
Muscogee County Confederate Monument,Salisbury Park. 700 Broadway,Columbus,GA,South,Monument,Monument,1879,NA,32.4609764,-84.9877094
Oglethorpe County Confederate Monument,Oglethorpe County Courthouse,Lexington,GA,South,Monument / Courthouse,Monument,1916,NA,33.8698404,-83.111817
Polk Circle,NA,Fort Oglethorpe,GA,South,Road / Street / Highway,Highway / Roadway,NA,NA,34.9461795,-85.2533616
Polk County Confederate Monument,Polk County Courthouse,Cedartown,GA,South,Monument / Courthouse,Monument,1906,NA,34.013655,-85.255242
Randolph County Confederate Monument,City Park,Cuthbert,GA,South,Monument,Monument,1910,NA,31.7712748,-84.7893658
Robert E. Lee Boulevard,NA,Stone Mountain,GA,South,Road / Street / Highway,Highway / Roadway,NA,NA,33.8035288,-84.1569726
Robert E. Lee Drive,NA,Columbus,GA,South,Road / Street / Highway,Highway / Roadway,NA,NA,32.407803,-84.93006
Robert E. Lee Drive,NA,Ringgold,GA,South,Road / Street / Highway,Highway / Roadway,NA,NA,34.9267007,-85.1642394
Robert E. Lee Parkway,NA,Jonesboro,GA,South,Road / Street / Highway,Highway / Roadway,NA,NA,33.522457,-84.3692292
Robert E. Lee Street,NA,Andersonville,GA,South,Road / Street / Highway,Highway / Roadway,NA,NA,32.1989873,-84.1566519
Robert E. Lee Street,NA,Fort Oglethorpe,GA,South,Road / Street / Highway,Highway / Roadway,NA,NA,34.9461711,-85.25899
Robert Toombs Avenue,NA,Washington,GA,South,Road / Street / Highway,Highway / Roadway,NA,NA,33.7328062,-82.7261731
Schley County Confederate Monument,Courthouse Square. Oglethorpe St. And Broad St.,Ellaville,GA,South,Monument / Courthouse,Monument,1910,NA,32.3072254,-84.2926093
Shelby Street,NA,Fort Oglethorpe,GA,South,Road / Street / Highway,Highway / Roadway,NA,NA,34.9464716,-85.2578567
Sons of Confederate Veterans Commemorative License Plate,NA,Atlanta,GA,South,Commemorative License Plate,Commemorative License Plate,NA,NA,33.7676338,-84.5606886
Stephens County,NA,Toccoa,GA,South,County,County,1905,NA,34.5773206,-83.3323851
Stephens County Confederate Monument,Stephens County Historic Courthouse,Toccoa,GA,South,Monument / Courthouse,Monument,1922,NA,34.5794544,NA
Stewart County Confederate Monument,"Courthouse Square, Northwest Corner",Lumpkin,GA,South,Monument / Courthouse,Monument,1908,NA,32.050673,-84.794573
Stone Mountain Confederate Memorial Carving,Stone Mountain Memorial Park,Stone Mountain,GA,South,Monument,Monument,1923,NA,33.808347,-84.144684
Stonewall Jackson Dam,NA,Muscogee,GA,South,Dam,Other,NA,NA,32.5118071,-84.8165964
Stonewall Jackson Drive,NA,Stone Mountain,GA,South,Road / Street / Highway,Highway / Roadway,NA,NA,33.8110047,-84.1315902
Stonewall Jackson Drive,NA,Jonesboro,GA,South,Road / Street / Highway,Highway / Roadway,NA,NA,33.522457,-84.3692292
Stonewall Jackson Place,NA,Waycross,GA,South,Road / Street / Highway,Highway / Roadway,NA,NA,31.2111258,-82.291913
Stuart Street,NA,Savannah,GA,South,Road / Street / Highway,Highway / Roadway,NA,NA,32.0127438,-81.1022118
Taylor County Confederate Monument,Courthouse Square,Butler,GA,South,Monument / Courthouse,Monument,1911,NA,32.557093,-84.237587
The Dissolution of the Confederate Government,North Spring Street,Washington,GA,South,Monument,Monument,1938,NA,33.73764,-82.739145
Thomas Overby Drive,NA,Sharpsburg,GA,South,Road / Street / Highway,Highway / Roadway,NA,NA,33.40135,-84.6543256
Thomas Street,NA,Fitzgerald,GA,South,Road / Street / Highway,Highway / Roadway,NA,NA,31.719538,-83.2490385
Tift County Confederate Memorial,Fulwood Park. 12Th St. And Tift Ave.,Tifton,GA,South,Monument,Monument,1910,1992,31.462299,-83.503661
Toombs County,NA,Lyons,GA,South,County,County,NA,NA,32.204167,-82.322778
Twiggs County Confederate Monument,(S. Railroad & S. Ash St) Jeffersonville Hwy. 80 Near Courthouse,Jeffersonville,GA,South,Monument,Monument,1911,NA,32.687646,-83.3465561
Tyler Home — Ladies Aid Society,Veterans Parkway,Columbus,GA,South,Monument,Monument,1936,NA,32.5327455,-84.9555068
Valor Monument at Memorial Plaza,Stone Mountain Memorial Park,Stone Mountain,GA,South,Monument,Monument,1977,NA,33.8081608,-84.170196
Walker County Confederate Monument,John B. Gordon Hall. N. Main St.,Lafayette,GA,South,Monument,Monument,1909,NA,34.7247554,-85.2797971
Ware County Confederate Monument,"Phoenix Park. Plant Ave., Elizabeth And Pendleton",Waycross,GA,South,Monument,Monument,1910,NA,31.209397,-82.359647
Warren County Confederate Monument,"Warren County Courthouse, West Side",Warrenton,GA,South,Monument / Courthouse,Monument,1904,NA,33.4070837,-82.6620781
Wheeler County,NA,Alamo,GA,South,County,County,1912,NA,32.12,-82.72
Wheeler Drive,NA,Forest Park,GA,South,Road / Street / Highway,Highway / Roadway,1957,NA,33.6254982,-84.3158748
Wheeler Road,NA,Augusta,GA,South,Road / Street / Highway,Highway / Roadway,NA,NA,33.4852283,-82.0778319
Wheeler Street,NA,Savannah,GA,South,Road / Street / Highway,Highway / Roadway,NA,NA,32.0127438,-81.1022118
William Thomas Overby — Confederate Hero Monument,Coweta County Courthouse,Newnan,GA,South,Monument / Courthouse,Monument,1956,NA,33.3749545,-84.8020887
Confederate Memorial,NA,Bloomfield,IA,North,Monument,Monument,2005,NA,40.7516884,-92.4149074
Iowa's Confederate General,County Conservation Board Park,Bentonsport,IA,North,Monument,Monument,2007,NA,41.8780025,-93.097702
The Confederate Invasion of Iowa Monument,County Road V 20,Bloomfield,IA,North,Monument,Monument,2005,NA,40.7516884,-92.4149074
Robert E. Lee Campground,Boise National Forest,Boise,ID,Not a State,Campground,Other,NA,NA,46.1479373,-116.6576451
Robert E. Lee Creek,NA,Boise National Forest,ID,Not a State,River / Creek / Lake,Body of Water,NA,NA,46.1479373,-116.6576451
Confederate Memorial,Battle Of Corydon Memorial Park,Corydom,IN,North,Monument,Monument,1976,NA,38.199,-86.1311887
Confederate Flag Bicentennial Memorial,Veterans Memorial Park,Wichita,KS,North,Monument,Monument,1962,NA,37.6871761,-97.330053
Confederate Soldier Shot Monument,City Square,Humboldt,KS,North,Monument,Monument,NA,NA,37.8105961,-95.4369264
Battle of Dutton's Hill Monument,NA,Somerset,KY,Border,Monument,Monument,1974,NA,37.0920222,-84.6041084
Camp Beauregard Memorial,NA,Water Valley,KY,Border,Monument,Monument,1930,NA,36.5656153,-88.8111679
City of Confederate,NA,Confederate,KY,Border,Municipality,Municipality,NA,NA,36.9920129,-88.0062757
Colonel Robert A. Smith Monument,NA,Mundfordville,KY,Border,Monument,Monument,1863,NA,37.8393332,-84.2700179
Confederate Martyrs Monument,NA,Jeffersontown,KY,Border,Monument,Monument,1904,NA,37.8393332,-84.2700179
Confederate Memorial,NA,Mayfield,KY,Border,Monument,Monument,NA,NA,36.7417235,-88.6367154
Confederate Memorial,Jessamine County Courthouse,Nicholasville,KY,Border,Monument / Courthouse,Monument,1896,1995,37.880559,-84.573156
Confederate Memorial Fountain,NA,Hopkinsville,KY,Border,Monument,Monument,1916,NA,36.8656008,-87.4886186
Confederate Memorial Gates,NA,Mayfield,KY,Border,Monument,Monument,1865,NA,36.7417235,-88.6367154
Confederate Memorial Gateway,NA,Hickman,KY,Border,Monument,Monument,1965,NA,36.5711721,-89.1861791
Confederate Monument,NA,Augusta,KY,Border,Monument,Monument,1965,NA,38.7717376,-84.0057628
Confederate Monument,NA,Cadiz,KY,Border,Monument,Monument,1965,NA,36.8650496,-87.835295
Confederate Monument,NA,Crab Orchard,KY,Border,Monument,Monument,1965,NA,37.4645267,-84.5066044
Confederate Monument,NA,Cynthiana,KY,Border,Monument,Monument,1965,NA,38.3903526,-84.2941013
Confederate Monument,Mcdowell Park At Main & College Streets,Danville,KY,Border,Monument,Monument,1910,NA,37.6455556,-84.780522
Confederate Monument,NA,Fulton,KY,Border,Monument,Monument,1892,NA,36.5042277,-88.8742259
Confederate Monument,NA,Georgetown,KY,Border,Monument,Monument,1892,NA,38.2097967,-84.5588311
Confederate Monument,Town Square. Main St. And Greene St.,Glasgow,KY,Border,Monument,Monument,1905,NA,36.9958839,-85.9119215
Confederate Monument,Third St. And Brandeis St.,Louisville,KY,Border,Monument,Monument,1895,NA,38.2185689,-85.7507306
Confederate Monument,NA,Louisville,KY,Border,Monument,Monument,1902,NA,38.2526647,-85.7584557
Confederate Monument,NA,Morganfield,KY,Border,Monument,Monument,1902,NA,37.6833776,-87.9166915
Confederate Monument,NA,Mt. Sterling,KY,Border,Monument,Monument,1902,NA,38.0564679,-83.9432556
Confederate Monument,NA,Owensboro,KY,Border,Monument,Monument,1907,NA,37.7719074,-87.1111676
Confederate Monument,NA,Paducah,KY,Border,Monument,Monument,1907,NA,37.0833893,-88.6000478
Confederate Monument,Park Square,Russellville,KY,Border,Monument,Monument,1911,NA,36.8453199,-86.887219
Confederate Monument,NA,Versailles,KY,Border,Monument,Monument,1911,NA,38.052576,-84.7299464
Confederate Monument,Anderson County Courthouse,Lawrenceburg,KY,Border,Monument / Courthouse,Monument,1994,NA,38.035421,-84.895522
Confederate Monument,Calloway County Courthouse,Murray,KY,Border,Monument / Courthouse,Monument,1917,NA,36.610409,-88.302299
Confederate Soldier Monument,Caldwell County Courthouse. 62 E. Market St.,Princeton,KY,Border,Monument / Courthouse,Monument,1912,NA,37.108827,-87.881874
Confederate Soldiers Martyrs Monument,NA,Eminence,KY,Border,Monument,Monument,1964,NA,38.3700683,-85.1805105
General Felix K. Zollicoffer Monument,NA,Nancy,KY,Border,Monument,Monument,1973,NA,37.0717419,-84.7479996
General Ross Drive,NA,Erlanger,KY,Border,Road / Street / Highway,Highway / Roadway,NA,NA,39.0534036,-84.6195178
General Stuart Drive,NA,Erlanger,KY,Border,Road / Street / Highway,Highway / Roadway,NA,NA,39.0534036,-84.6195178
Jeff Davis Road,NA,Mayfield,KY,Border,Road / Street / Highway,Highway / Roadway,NA,NA,36.6920829,-88.5987626
Jefferson Davis Drive,NA,Madisonville,KY,Border,Road / Street / Highway,Highway / Roadway,NA,NA,37.3174199,-87.5210949
Jefferson Davis Highway,NA,Elkton,KY,Border,Road / Street / Highway,Highway / Roadway,NA,NA,36.8273166,-87.2237202
Jefferson Davis Monument,258 Pembroke-Fairview Road,Fairview,KY,Border,Monument,Monument,1889,NA,36.8433771,-87.3038926
Jefferson Davis Place,NA,Erlanger,KY,Border,Road / Street / Highway,Highway / Roadway,NA,NA,39.0534036,-84.6195178
Jefferson Davis Road,NA,Elkton,KY,Border,Road / Street / Highway,Highway / Roadway,NA,NA,36.843943,-87.2979118
Jefferson Davis State Historic Site,258 Pembroke-Fairview Road,Fairview,KY,Border,Park,Park,1957,NA,36.8433771,-87.3038926
Jefferson Davis Statue,Kentucky Rotunda (Capitol),Frankfort,KY,Border,Monument,Monument,1936,NA,38.1865754,-84.8756413
John B. Castleman Monument,NA,Louisville,KY,Border,Monument,Monument,1913,NA,38.2352786,-85.7124611
John C. Breckinridge Memorial,NA,Lexington,KY,Border,Monument,Monument,1889,NA,38.0405837,-84.5037164
John Hunt Morgan Memorial,Lexington-Fayette Urban County Courthouse,Lexington,KY,Border,Monument / Courthouse,Monument,1911,NA,38.047464,-84.497801
Latham Confederate Monument,NA,Hopkinsville,KY,Border,Monument,Monument,1997,NA,36.8656008,-87.4886186
Lee County,NA,Beattyville,KY,Border,County,County,1971,NA,37.5717532,-83.7068597
Lloyd Tilghman Monument,Lang Park. Fountain Ave.,Paducah,KY,Border,Monument,Monument,1909,NA,37.0814055,-88.6191072
Robert E. Lee Drive,NA,Erlanger,KY,Border,Road / Street / Highway,Highway / Roadway,NA,NA,39.0534036,-84.6195178
Robert Lee Road,NA,Raywick,KY,Border,Road / Street / Highway,Highway / Roadway,NA,NA,37.5422056,-85.4318361
Stonewall Elementary School,3215 Cornwall Dr,Lexington,KY,Border,School,School,1961,NA,38.0008812,-84.5546417
Thompson and Powell Martyrs Monument,NA,St. Joseph,KY,Border,Monument,Monument,1864,NA,37.6944901,-87.3252794
Unknown Confederate Dead Monument,NA,Perryville,KY,Border,Monument,Monument,1862,NA,37.650351,-84.9516234
Unknown Confederate Soldier,NA,Horse Cave,KY,Border,Monument,Monument,1971,NA,37.179496,-85.9069175
William F. Perry Monument,NA,Bowling Green,KY,Border,Monument,Monument,1973,NA,36.9685219,-86.4808043
Beauregard Alternative School,506 Martin Luther King Dr,De Ridder,LA,South,School,School,NA,NA,30.8411282,-93.2721059
Beauregard Avenue,NA,Lake Charles,LA,South,Road / Street / Highway,Highway / Roadway,NA,NA,30.2245674,-93.3153764
Beauregard Drive,NA,New Orleans,LA,South,Road / Street / Highway,Highway / Roadway,NA,NA,29.951284,-90.0133622
Beauregard Drive,NA,Lake Charles,LA,South,Road / Street / Highway,Highway / Roadway,NA,NA,30.1784361,-93.2173038
Beauregard Drive,NA,Gretna,LA,South,Road / Street / Highway,Highway / Roadway,NA,NA,29.9189563,-90.0551772
Beauregard Parish,NA,DeRidder,LA,South,County,County,1913,NA,30.8463055,-93.2890527
Beauregard Place,NA,Bossier City,LA,South,Road / Street / Highway,Highway / Roadway,NA,NA,32.5124436,-93.7306912
Beauregard Street,NA,Lake Charles,LA,South,Road / Street / Highway,Highway / Roadway,NA,NA,30.166141,-93.2247457
Beauregard Street,NA,Chalmette,LA,South,Road / Street / Highway,Highway / Roadway,NA,NA,29.937667,-89.9651231
Breckinbridge's March Monument,North Street And Foster Drive,Baton Rouge,LA,South,Monument,Monument,1931,NA,30.4788746,-91.1406261
Brigadier General Albert Pike Bust,Tulane & Jefferson Davis Parkway,New Orleans,LA,South,Monument,Monument,1957,NA,29.965103,-90.098512
Brigadier General J.J. Alfred A. Mouton Statue,Lafayette City Hall,Lafayette,LA,South,Monument,Monument,1922,NA,30.221635,-92.01862
Camp Beauregard,505 F Street,Pineville,LA,South,Military Base,Military Base,1917,NA,31.3706258,-92.4015198
City of Stonewall,NA,Stonewall,LA,South,Municipality,Municipality,NA,NA,32.2665238,-93.845943
Confederate Avenue,NA,Baton Rouge,LA,South,Road / Street / Highway,Highway / Roadway,NA,NA,30.3938991,-91.0086291
Confederate Memorial,NA,Old Pleasant Hill,LA,South,Monument,Monument,NA,NA,31.8198888,-93.5143443
Confederate Memorial,Iberville Parish Courthouse,Plaquemine,LA,South,Monument,Monument,1914,NA,30.287626,-91.235185
Confederate Monument,Third St. And North Blvd.,Baton Rouge,LA,South,Monument,Monument,1886,NA,30.4479056,-91.1646675
Confederate Monument,East Feliciana Parish Courthouse,Clinton,LA,South,Monument,Monument,1909,NA,30.8657362,-91.0156594
Confederate Monument,Jacquelyn Park,Minden,LA,South,Monument,Monument,1933,NA,32.6154278,-93.2868354
Confederate Monument,St. Mary Parish Courthouse,Franklin,LA,South,Monument / Courthouse,Monument,1913,NA,29.7960399,-91.5015002
Confederate Monument,Claiborne Parish Courthouse Grounds,Homer,LA,South,Monument / Courthouse,Monument,1940,NA,32.790549,-93.055406
Confederate Monument,St. Landry Parish Courthouse,Opelousas,LA,South,Monument / Courthouse,Monument,1920,NA,30.5334796,-92.083293
Confederate Monument,"Caddo Parish Courthouse, 500 Texas Street",Shreveport,LA,South,Monument / Courthouse,Monument,1906,NA,32.5251516,-93.7501789
Confederate Monument,West Feliciana Parish Courthouse,St. Francisville,LA,South,Monument / Courthouse,Monument,1903,NA,30.775761,-91.386302
Confederate Monument,Madison Parish Courthouse Grounds,Tallulah,LA,South,Monument / Courthouse,Monument,1912,NA,32.4077095,-91.1894467
Confederate Monument,Winn Parish Courthouse,Winnfield,LA,South,Monument / Courthouse,Monument,1926,NA,31.926506,-92.638907
Confederate Soldier Monument,Courthouse,Benton,LA,South,Monument / Courthouse,Monument,1910,NA,32.679561,-93.744134
East Beauregard Elementary School,5368 Hwy 113,De Ridder,LA,South,School,School,2001,NA,30.7458629,-93.0257886
East Beauregard High School,5364 Hwy 113,De Ridder,LA,South,School,School,1962,NA,30.7459145,-93.0257752
Edmund Kirby Smith Hall at Louisiana State University,NA,Baton Rouge,LA,South,Building,Other,1965,2011,30.4132579,-91.1800023
Father Abram Ryan Monument,Banks & Jefferson Davis Parkway,New Orleans,LA,South,Monument,Monument,1950,NA,29.96764,-90.096671
Fort Butler Memorial,Veteran's Blvd. At Iberville Street,Donaldsonville,LA,South,Monument,Monument,1999,NA,30.1040621,-90.9857229
Fort Humbug Confederate Memorial,Stoner Avenue And Youree Drive,Shreveport,LA,South,Monument,Monument,1927,NA,32.500118,-93.724528
Fort Polk,NA,Fort Polk,LA,South,Military Base,Military Base,1941,NA,31.089107,-93.0576199
General Bragg Drive,NA,Bossier City,LA,South,Road / Street / Highway,Highway / Roadway,NA,NA,32.5124436,-93.7306912
General Ewell Drive,NA,Bossier City,LA,South,Road / Street / Highway,Highway / Roadway,NA,NA,32.5124436,-93.7306912
General Polk Drive,NA,Bossier City,LA,South,Road / Street / Highway,Highway / Roadway,NA,NA,32.5124436,-93.7306912
General Sterling Price Place,NA,Bossier City,LA,South,Road / Street / Highway,Highway / Roadway,NA,NA,32.5124436,-93.7306912
Governor Francis T. Nichols Statue,State Capitol,Baton Rouge,LA,South,Monument,Monument,1934,NA,30.456831,-91.18736
Governor Henry Watkins Allen Statue,State Capitol,Baton Rouge,LA,South,Monument,Monument,1934,NA,30.456831,-91.18736
Governor Nicholls Street,NA,New Orleans,LA,South,Road / Street / Highway,Highway / Roadway,NA,NA,29.9650616,-90.0677167
Henry Watkins Allen gravesite,Old State Capitol Grounds,Baton Rouge,LA,South,Monument,Monument,1885,NA,30.446862,-91.189433
Henry Watkins Allen Statue,West Batoun Rouge Parish Courthouse,Port Allen,LA,South,Monument / Courthouse,Monument,1962,NA,30.4474878,-91.2073261
Home Where Jefferson Davis Died,Jefferson Davis Parkway,New Orleans,LA,South,Monument,Monument,1930,NA,29.928677,-90.079787
Jeb Stuart Place,NA,Bossier City,LA,South,Road / Street / Highway,Highway / Roadway,NA,NA,32.5124436,-93.7306912
Jeff Davis Avenue,NA,Rayne,LA,South,Road / Street / Highway,Highway / Roadway,NA,NA,30.2468196,-92.2973555
Jeff Davis Drive,NA,Lafayette,LA,South,Road / Street / Highway,Highway / Roadway,NA,NA,30.1401188,-92.0884344
Jeff Davis Road,NA,Bell City,LA,South,Road / Street / Highway,Highway / Roadway,NA,NA,30.1566858,-92.9730206
Jeff Davis Street,NA,Baton Rouge,LA,South,Road / Street / Highway,Highway / Roadway,NA,NA,30.4278744,-91.1865665
Jefferson Davis Drive,NA,Bogalusa,LA,South,Road / Street / Highway,Highway / Roadway,NA,NA,30.797862,-89.8414824
Jefferson Davis Drive,NA,Pineville,LA,South,Road / Street / Highway,Highway / Roadway,NA,NA,31.366973,-92.366851
Jefferson Davis Drive,NA,Monroe,LA,South,Road / Street / Highway,Highway / Roadway,NA,NA,32.5532943,-92.1116406
Jefferson Davis Highway,NA,NA,LA,South,Road / Street / Highway,Highway / Roadway,NA,NA,30.9556736,-93.6799178
Jefferson Davis Highway Marker,Huey P. Long Avenue,Gretna,LA,South,Monument,Monument,NA,NA,29.9039118,-90.0557285
Jefferson Davis Highway Monument,Government St. At Eugene St.,Baton Rouge,LA,South,Monument,Monument,NA,NA,30.4337037,-91.1595114
Jefferson Davis Monument,Jefferson Davis Parkway,New Orleans,LA,South,Monument,Monument,1911,NA,29.969845,-90.094266
Jefferson Davis Parish,NA,Jennings,LA,South,County,County,1912,NA,30.222501,-92.6536526
Jefferson Davis Parkway,NA,New Orleans,LA,South,Road / Street / Highway,Highway / Roadway,NA,NA,29.9686923,-90.1500395
Jefferson Davis Street,NA,Houma,LA,South,Road / Street / Highway,Highway / Roadway,NA,NA,29.6076947,-90.7266869
Judah P. Benjamin Monument,Hwy 23 At Avenue B,Belle Chasse,LA,South,Monument,Monument,1968,NA,29.8533775,-89.9879438
Kirby Smith Drive,NA,Bossier City,LA,South,Road / Street / Highway,Highway / Roadway,NA,NA,32.5124436,-93.7306912
Lee Circle,NA,New Orleans,LA,South,Road / Street / Highway,Highway / Roadway,NA,NA,29.9434974,-90.0724868
Lee Drive,NA,Baton Rouge,LA,South,Road / Street / Highway,Highway / Roadway,NA,NA,30.4056029,-91.1501931
Lieutenant General Richard Taylor Monument,NA,Old Pleasant Hill,LA,South,Monument,Monument,1994,NA,31.8198888,-93.5143443
Longstreet Drive,NA,Pineville,LA,South,Road / Street / Highway,Highway / Roadway,NA,NA,31.3653991,-92.3678594
Longstreet Place,NA,Bossier City,LA,South,Road / Street / Highway,Highway / Roadway,NA,NA,32.5124436,-93.7306912
P.G.T. Beauregard Hall at Nicholls State University,906 E 1St S,Thibodaux,LA,South,Building,Other,1961,2010,29.7957633,-90.822871
P.G.T. Beauregard Statue,Carrolton And Esplanade,New Orleans,LA,South,Monument,Monument,1913,NA,29.984062,-90.089895
Polk Street,NA,New Orleans,LA,South,Road / Street / Highway,Highway / Roadway,NA,NA,29.9991666,-90.1103017
Port Hudson Confederate Monument,108 Borskey Lane,Zachary,LA,South,Monument,Monument,1930,NA,30.6809029,-91.2870498
Rapides Parish Confederate Monument,Rapides Parish Courthouse,Alexandria,LA,South,Monument / Courthouse,Monument,1914,NA,31.308786,-92.44741
Rebel State Historic Site,1260 Hwy. 1221,Marthaville,LA,South,Park,Park,1962,NA,31.7523161,-93.4231767
Red River Campaign,"Hwy 175, Past Hwy 177",Old Pleasant Hill,LA,South,Monument,Monument,1994,NA,31.84595,-93.51013
Rober E. Lee Road,NA,Merryville,LA,South,Road / Street / Highway,Highway / Roadway,NA,NA,30.8414127,-93.4976746
Robert E. Lee Boulevard,NA,Bossier City,LA,South,Road / Street / Highway,Highway / Roadway,NA,NA,32.5124436,-93.7306912
Robert E. Lee Boulevard,NA,New Orleans,LA,South,Road / Street / Highway,Highway / Roadway,NA,NA,30.0209096,-90.0833027
Robert E. Lee High School,1105 Lee Drive,Baton Rouge,LA,South,School,School,1960,NA,30.4057617,-91.1524048
Robert E. Lee Junior High School,1600 North 19Th Street,Monroe,LA,South,School,School,NA,NA,32.5280075,-92.1109085
Robert E. Lee Monument,Lee Circle,New Orleans,LA,South,Monument,Monument,1884,NA,29.943056,-90.072222
Robert E. Lee Statue,Johnson Bayou High School,Johnson Bayou,LA,South,Monument,Monument,1984,NA,29.762999,-93.6964703
Robert E. Lee Street,NA,Bossier City,LA,South,Road / Street / Highway,Highway / Roadway,NA,NA,32.5124436,-93.7306912
Slidell Street,NA,New Orleans,LA,South,Road / Street / Highway,Highway / Roadway,NA,NA,29.9475346,-90.0480767
Sons of Confederate Veterans Commemorative License Plate,NA,NA,LA,South,Commemorative License Plate,Commemorative License Plate,NA,NA,30.4413992,-91.248748
South's Defenders Monument,Calcasieu Parish Courthouse,Lake Charles,LA,South,Monument / Courthouse,Monument,1915,1995,30.2265949,-93.2173758
South Beauregard Elementary School,12378 Hwy 171,Longville,LA,South,School,School,NA,NA,30.5675805,-93.2325842
South Beauregard High School,151 Longville Church Rd,Longville,LA,South,School,School,NA,NA,30.5702151,-93.2339401
Unknown Confederate Soldier Monument,"Rebel State Park/Historic Site, 1260 Louisiana Highway 1221 Marthaville Louisiana",Marthaville,LA,South,Monument,Monument,1970,NA,31.7387778,-93.3965629
Village of Longstreet,NA,Longstreet,LA,South,Municipality,Municipality,NA,NA,32.1,-93.95
Confederate Memorial,Fort Warren,Boston Harbor Islands,MA,North,Monument,Monument,1963,NA,42.3166774,-70.9680543
Confederate Memorial,Howard County Clerk of Court building,Ellicott City,MD,Border,Monument / Courthouse,Monument,1948,NA,39.268465,-76.798475
Confederate Monument,Rockville Courthouse. Jefferson St.,Rockville,MD,Border,Monument / Courthouse,Monument,NA,NA,39.083477,-77.151351
Confederate Soldiers and Sailors Monument (Spirit of the Confederacy),Mount Royal And Mosher,Baltimore,MD,Border,Monument,Monument,1903,NA,39.2973857,-76.662929
Confederate Women of Maryland,Charles Street And University Parkway,Baltimore,MD,Border,Monument,Monument,1917,NA,39.3375567,-76.6258868
Jackson and Lee Monument,Wyman Park. Art Museum Dr. And Wyman Park Dr.,Baltimore,MD,Border,Monument,Monument,1948,1997,39.3240012,-76.625805
Jubal Early Court,NA,Potomac,MD,North,Road / Street / Highway,Highway / Roadway,NA,NA,39.054294,-77.1718047
Sons of Confederate Veterans Commemorative License Plate,NA,NA,MD,North,Commemorative License Plate,Commemorative License Plate,NA,NA,38.970913,-76.5408161
Captain Delaney S. Washburn Memorial,Randolph County Couthouse Lawn,Huntsville,MO,Border,Monument / Courthouse,Monument,1976,NA,39.440721,-92.544777
Confederate Capital of Missouri,Newton County Courthouse,Neosho,MO,Border,Monument / Courthouse,Monument,NA,NA,36.869301,-94.367983
Confederate Drive,Forest Park,St. Louis,MO,Border,Road / Street / Highway,Highway / Roadway,1914,NA,38.6445421,-90.2796957
Confederate Memorial,"Confederate Drive, Forest Park",St. Louis,MO,Border,Monument,Monument,1914,NA,38.6270025,-90.1994042
Confederate Memorial,Rozier St. Lincoln Shields Recreation Area,West Alton,MO,Border,Monument,Monument,1909,NA,38.8650487,-90.2226109
Confederate Monument,Jefferson Barracks. 2900 Sheridan Rd.,St. Louis,MO,Border,Monument,Monument,1988,NA,38.5023807,-90.2874558
Confederate Monument,"Common Pleas Courthouse;  44 N. Lorimier St., Cape Girardeau, MO",Cape Girardeau,MO,Border,Monument / Courthouse,Monument,1931,NA,37.305115,-89.520612
Confederate Monument,Boone County Courthouse,Columbia,MO,Border,Monument / Courthouse,Monument,1935,NA,38.952852,-92.329282
Confederate Monument (Lion of Lucerne),Confederate Memorial State Historic Site,Higginsville,MO,Border,Monument,Monument,1906,NA,39.0725121,-93.7171621
Confederate Monument of Saline,NA,Marshall,MO,Border,Monument,Monument,1901,NA,39.1230777,-93.1968704
Frenchman's Spring,County Road 632,Dexter,MO,Border,Monument,Monument,1996,NA,36.7599499,-89.969859
General Joseph O. Shelby statue,512 Main St.,Waverly,MO,Border,Monument,Monument,2009,NA,39.2090222,-93.5174447
General Lee Drive,NA,Sappington,MO,Border,Road / Street / Highway,Highway / Roadway,NA,NA,38.5423879,-90.3701914
Jefferson Davis Drive,NA,Hillsboro,MO,Border,Road / Street / Highway,Highway / Roadway,NA,NA,38.256428,-90.6197828
Missouri State Guard,West Farm Road,Brookline,MO,Border,Monument,Monument,2001,NA,37.1781879,-93.4161205
Palmyra Massacre Monument,Marion County Courthouse. Main St. And Lafayette,Palmyra,MO,Border,Monument / Courthouse,Monument,1907,NA,39.799035,-91.523322
Robert E. Lee Elementary School,1208 Locust,Columbia,MO,Border,School,School,1934,NA,38.9489479,-92.3229218
Shelby's Homecoming Monument,City Park Gazebo. Mo-3.,Roanoke,MO,Border,Monument,Monument,1997,NA,39.3169764,-92.6887945
South Robert E. Lee Street,NA,Battlefield,MO,Border,Road / Street / Highway,Highway / Roadway,NA,NA,37.111592,-93.3781806
Sterling Price Gazebo and Park,NA,Keytesville,MO,Border,Park,Park,1915,NA,39.4344706,-92.9382485
Anderson Road,NA,Moss Point,MS,South,Road / Street / Highway,Highway / Roadway,NA,NA,30.3460699,-88.488711
Andrew Jackson Monument,219 S. President,Jackson,MS,South,Monument,Monument,1972,NA,32.2987573,-90.1848103
Armory's Tribute to the Heroes of 1861-1865,Frisco Park. Main St.,Armory,MS,South,Monument,Monument,1924,NA,33.9852882,-88.4920705
Baker Road,NA,Pascagoula,MS,South,Road / Street / Highway,Highway / Roadway,NA,NA,30.3372351,-88.5075136
Barron Road,NA,Moss Point,MS,South,Road / Street / Highway,Highway / Roadway,NA,NA,30.3460699,-88.488711
Beauregard Road,NA,Wesson,MS,South,Road / Street / Highway,Highway / Roadway,NA,NA,31.7327619,-90.3399034
Beauregard Road,NA,Moss Point,MS,South,Road / Street / Highway,Highway / Roadway,NA,NA,30.3460699,-88.488711
Beauregard Street,NA,Tupelo,MS,South,Road / Street / Highway,Highway / Roadway,NA,NA,34.2722929,-88.7420899
Beauregard Street,NA,Bogue Chitto,MS,South,Road / Street / Highway,Highway / Roadway,NA,NA,31.4367988,-90.4527291
Beauregard Street,NA,Senatobia,MS,South,Road / Street / Highway,Highway / Roadway,NA,NA,34.6202933,-89.9740226
Bedford Forrest Road,NA,Hattiesburg,MS,South,Road / Street / Highway,Highway / Roadway,NA,NA,31.1688074,-89.295124
Benton County,NA,Ashland,MS,South,County,County,1870,NA,34.832872,-89.1759026
Bragg Road,NA,Moss Point,MS,South,Road / Street / Highway,Highway / Roadway,NA,NA,30.3460699,-88.488711
Brandon Confederate Monument,Rankin County Courthouse,Brandon,MS,South,Monument / Courthouse,Monument,1907,NA,32.273118,-89.986787
Breckinridge Road,NA,Moss Point,MS,South,Road / Street / Highway,Highway / Roadway,NA,NA,30.3460699,-88.488711
City of Stonewall,NA,Stonewall,MS,South,Municipality,Municipality,NA,NA,32.1395348,-88.8108406
Claiborn County's Tribute to Her Sons Who Served in the War of 1861-65,Market Street Across From Claiborne County Courthouse,Port Gibson,MS,South,Monument,Monument,1906,NA,31.962067,-90.983625
Cleburne Road,NA,Moss Point,MS,South,Road / Street / Highway,Highway / Roadway,NA,NA,30.3460699,-88.488711
Colonel Rogers Statue,Alcorn County Courthouse,Corinth,MS,South,Monument / Courthouse,Monument,1912,NA,33.230333,-84.944008
Confederate Avenue,NA,Tupelo,MS,South,Road / Street / Highway,Highway / Roadway,NA,NA,34.2501692,-88.7524016
Confederate Dead Monument,100 S State St,Jackson,MS,South,Monument,Monument,1891,NA,32.2987573,-90.1848103
Confederate Flag,Carroll Courthouse Lawn,Carrollton,MS,South,Flag / Courthouse,Flag,NA,NA,33.5081773,-89.9203608
Confederate Memorial,Forrest County Courthouse. 630 Main St.,Hattiesburg,MS,South,Monument / Courthouse,Monument,1910,NA,31.3273164,-89.2913342
Confederate Memorial,Jones County Courthouse 415 N. Fifth Ave.,Laurel,MS,South,Monument / Courthouse,Monument,1912,NA,31.6942747,-89.1306613
Confederate Memorial Building,215 Henderson Street,Greenwood,MS,South,Building,Other,NA,NA,33.5192889,-90.1859157
Confederate Memorial Monument,Noxubee County Courthouse,Macon,MS,South,Monument / Courthouse,Monument,1901,NA,33.1060878,-88.5630554
Confederate Memorial Statue,Winona Montgomery County Library,Winona,MS,South,Monument,Monument,1909,NA,33.4830161,-89.7290841
Confederate Monument,City Of Aberdeen Park And Recs (W. Commerce St.),Aberdeen,MS,South,Monument,Monument,1900,NA,33.825526,-88.5652151
Confederate Monument,Town Square,Grenada,MS,South,Monument,Monument,1910,NA,33.784904,-89.802557
Confederate Monument,"131 Church St., N",Liberty,MS,South,Monument,Monument,1871,NA,31.1575167,-90.8088582
Confederate Monument,Columbus St. And Main St.,Louisville,MS,South,Monument,Monument,1921,NA,33.1245909,-89.035512
Confederate Monument,"Memorial Park, Southwest corner of Main Street at South Rankin Street",Natchez,MS,South,Monument,Monument,1890,NA,31.5565101,-91.4022377
Confederate Monument,University Of Mississippi,University,MS,South,Monument,Monument,NA,NA,34.3647324,-89.5406317
Confederate Monument,Commerce St.,West Point,MS,South,Monument,Monument,1907,NA,33.60555,-88.647882
Confederate Monument,Triangle Grounds,Yazoo City,MS,South,Monument,Monument,NA,NA,32.850478,-90.411589
Confederate Monument,Tallahatchie County Courthouse,Charleston,MS,South,Monument / Courthouse,Monument,NA,NA,34.00678,-90.0567563
Confederate Monument,Bolivar County Courthouse,Cleveland,MS,South,Monument / Courthouse,Monument,1908,NA,33.7440023,-90.7248187
Confederate Monument,"Bounded By Court, Holly, Calhoun And Ivy Sts.",Ellisville,MS,South,Monument / Courthouse,Monument,1912,NA,31.6040538,-89.1956142
Confederate Monument,Washington County Courthouse,Greenville,MS,South,Monument / Courthouse,Monument,1909,NA,33.4075212,-91.055422
Confederate Monument,Leflore County Courthouse,Greenwood,MS,South,Monument / Courthouse,Monument,1913,NA,33.5162315,-90.1795281
Confederate Monument,Harrison County Courthouse,Gulfport,MS,South,Monument / Courthouse,Monument,1911,NA,30.3674198,-89.0928155
Confederate Monument,Copiah County Courthouse,Hazlehurst,MS,South,Monument / Courthouse,Monument,1917,NA,31.8598926,-90.3970283
Confederate Monument,230 W. Washington St.,Kosciusko,MS,South,Monument / Courthouse,Monument,1911,NA,33.0586093,-89.591733
Confederate Monument,Courthouse Square,Lexington,MS,South,Monument / Courthouse,Monument,1908,NA,33.1131833,-90.0531408
Confederate Monument,Courthouse Square. 6Th St. And Constitution Ave.,Meridian,MS,South,Monument / Courthouse,Monument,1912,NA,32.3651045,-88.7012387
Confederate Monument,Lafayette County Courthouse,Oxford,MS,South,Monument / Courthouse,Monument,1907,NA,34.3664951,-89.5192484
Confederate Monument,Neshoba County Courthouse Lawn,Philadelphia,MS,South,Monument / Courthouse,Monument,1912,NA,32.7711411,-89.1109512
Confederate Monument,Archusa St. At Head Of Main St.,Quitman,MS,South,Monument / Courthouse,Monument,1911,NA,32.0398317,-88.7288718
Confederate Monument,Hinds County Courthouse,Raymond,MS,South,Monument / Courthouse,Monument,1908,NA,32.2593146,-90.4225951
Confederate Monument,Courthouse Square,Ripley,MS,South,Monument / Courthouse,Monument,1911,NA,34.7305721,-88.9490962
Confederate Monument,Tallahatchie County Courthouse,Sumner,MS,South,Monument / Courthouse,Monument,1913,NA,33.9706299,-90.3715805
Confederate Monument,Lee County Courthouse. West Broadway And Jefferson St.,Tupelo,MS,South,Monument / Courthouse,Monument,1906,NA,34.2590908,-88.7126805
Confederate Monument,Old Capitol Grounds- Now Charlotte Capers Archives and History Building,Jackson,MS,South,Monument,Monument,1891,NA,32.3036491,-90.1826192
Confederate Soldier Sculpture,Main St.,Fayette,MS,South,Monument,Monument,1904,NA,31.7135306,-91.0602081
Confederate Soldiers Monument,106 Church Street,Duck Hill,MS,South,Monument,Monument,1908,NA,33.6331751,-89.7111937
Confederate Statue,Mary Weems Parker Memorial Library. Hwy. 528,Heidelberg,MS,South,Monument,Monument,1911,NA,31.8868224,-88.9839419
Confederate Street,NA,Corinth,MS,South,Road / Street / Highway,Highway / Roadway,NA,NA,34.9421216,-88.5326089
Corinth Confederate Memorial,South Cass Street,Corinth,MS,South,Monument,Monument,1992,NA,34.9255789,-88.517929
Davis Magnet School,750 North Congress St,Jackson,MS,South,School,School,NA,NA,32.3077715,-90.1812536
Early Road,NA,Moss Point,MS,South,Road / Street / Highway,Highway / Roadway,NA,NA,30.3460699,-88.488711
Ewell Road,NA,Moss Point,MS,South,Road / Street / Highway,Highway / Roadway,NA,NA,30.3460699,-88.488711
Forrest Avenue,NA,Senatobia,MS,South,Road / Street / Highway,Highway / Roadway,NA,NA,34.6202933,-89.9740226
Forrest County,NA,Hattiesburg,MS,South,County,County,1908,NA,31.3271189,-89.2903392
Forrest County Agricultural High School,215 Old Hwy 49 East,Brooklyn,MS,South,School,School,1916,NA,31.0631622,-89.1870895
Forrest County Confederate Memorial,624 N Main St,Hattiesburg,MS,South,Monument,Monument,1910,NA,31.2992808,-89.3089027
Forrest Road,NA,Moss Point,MS,South,Road / Street / Highway,Highway / Roadway,NA,NA,30.3460699,-88.488711
Hardee Road,NA,Pascagoula,MS,South,Road / Street / Highway,Highway / Roadway,NA,NA,30.3372351,-88.5075136
Hood Road,NA,Moss Point,MS,South,Road / Street / Highway,Highway / Roadway,NA,NA,30.3460699,-88.488711
Howcott Monument to Loyal Servants of the Harvey Scouts,"Academy Street, East",Canton,MS,South,Monument,Monument,1894,NA,32.6126381,-90.0367512
Imboden Road,NA,Pascagoula,MS,South,Road / Street / Highway,Highway / Roadway,NA,NA,30.3372351,-88.5075136
Jeb Stuart Road,NA,Pascagoula,MS,South,Road / Street / Highway,Highway / Roadway,NA,NA,30.3372351,-88.5075136
Jeb Stuart Street,NA,Tupelo,MS,South,Road / Street / Highway,Highway / Roadway,NA,NA,34.2727138,-88.7410995
Jeff Davis Avenue,NA,Waveland,MS,South,Road / Street / Highway,Highway / Roadway,NA,NA,30.2929842,-89.3728544
Jeff Davis Avenue,NA,Long Beach,MS,South,Road / Street / Highway,Highway / Roadway,NA,NA,30.3485685,-89.1523254
Jeff Davis Drive,NA,Bay St. Louis,MS,South,Road / Street / Highway,Highway / Roadway,NA,NA,30.2896637,-89.4290088
Jeff Davis Elementary School,340 St. Mary Blvd.,Oxford,MS,South,School,School,1959,NA,30.405384,-88.934753
Jeff Davis Parkway,NA,Beaumont,MS,South,Road / Street / Highway,Highway / Roadway,NA,NA,31.1647301,-88.9255494
Jeff Davis Road,NA,De Kalb,MS,South,Road / Street / Highway,Highway / Roadway,NA,NA,32.7707686,-88.887778
Jeff Davis Road,NA,Prairie,MS,South,Road / Street / Highway,Highway / Roadway,NA,NA,33.803213,-88.6631647
Jeff Davis Road,NA,Duck Hill,MS,South,Road / Street / Highway,Highway / Roadway,NA,NA,33.6295757,-89.7114612
Jeff Davis Road,NA,Hollandale,MS,South,Road / Street / Highway,Highway / Roadway,NA,NA,33.2251998,-91.0134882
Jeff Davis Road,NA,Leakesville,MS,South,Road / Street / Highway,Highway / Roadway,NA,NA,31.15565,-88.6183834
Jeff Davis School Road,NA,Meridian,MS,South,Road / Street / Highway,Highway / Roadway,NA,NA,31.5941644,-83.2592803
Jefferson Davis Avenue,NA,Biloxi,MS,South,Road / Street / Highway,Highway / Roadway,NA,NA,30.393413,-88.9332548
Jefferson Davis County,NA,Prentiss,MS,South,County,County,1906,NA,31.5985012,-89.8670229
Jefferson Davis Drive,NA,Oxford,MS,South,Road / Street / Highway,Highway / Roadway,NA,NA,34.3515656,-89.5219812
Jefferson Davis Drive,NA,Indianola,MS,South,Road / Street / Highway,Highway / Roadway,NA,NA,33.4649346,-90.6521454
Jefferson Davis Hall at Pearl River Community College,5448 Us 49,Hattiesburg,MS,South,Building,Other,NA,NA,31.3491329,-89.3369191
Jefferson Davis Highway,NA,NA,MS,South,Road / Street / Highway,Highway / Roadway,NA,NA,30.3919435,-88.9718282
Jefferson Davis Lake,NA,Hattiesburg,MS,South,River / Creek / Lake,Body of Water,NA,NA,31.5649127,-89.8382722
Jefferson Davis Lake Dam,NA,Hattiesburg,MS,South,Dam,Other,NA,NA,31.3271189,-89.2903392
Jefferson Davis Parkway,NA,Picayune,MS,South,Road / Street / Highway,Highway / Roadway,NA,NA,30.5056462,-89.6809594
Joseph E. Johnston Road,NA,Moss Point,MS,South,Road / Street / Highway,Highway / Roadway,NA,NA,30.3460699,-88.488711
Kirby Smith Road,NA,Moss Point,MS,South,Road / Street / Highway,Highway / Roadway,NA,NA,30.3460699,-88.488711
Lee County,NA,Tupelo,MS,South,County,County,1866,NA,34.2576066,-88.7033859
Lee Drive,NA,Bogue Chitto,MS,South,Road / Street / Highway,Highway / Roadway,NA,NA,31.4185154,-90.4610978
Lee Elementary School,330 Judy St,Jackson,MS,South,School,School,1922,NA,32.2433968,-90.2212677
Lee Highway,NA,NA,MS,South,Road / Street / Highway,Highway / Roadway,NA,NA,34.9528792,-88.8799175
Longstreet,NA,Moss Point,MS,South,Road / Street / Highway,Highway / Roadway,NA,NA,30.3460699,-88.488711
Longstreet Lane,NA,Senatobia,MS,South,Road / Street / Highway,Highway / Roadway,NA,NA,34.6210059,-89.9752097
Longstreet Lane,NA,Picayune,MS,South,Road / Street / Highway,Highway / Roadway,NA,NA,30.5060881,-89.6787486
Lowndes County Confederate Monument,Lowndes County Courthouse. Fifth St. S And Second Ave. N,Columbus,MS,South,Monument / Courthouse,Monument,1912,NA,33.496971,-88.4234568
Magruder Road,NA,Moss Point,MS,South,Road / Street / Highway,Highway / Roadway,NA,NA,30.3460699,-88.488711
Mississippi State Flag,NA,Jackson,MS,South,Flag,Flag,1894,2011,32.310251,-90.3289724
Mosby Road,NA,Pascagoula,MS,South,Road / Street / Highway,Highway / Roadway,NA,NA,30.3372351,-88.5075136
North Forrest Elementary School,702 Eatonville Rd,Hattiesburg,MS,South,School,School,NA,NA,31.4110909,-89.3296967
Our Confederate Dead Confederate Memorial,Main St.,Okolona,MS,South,Monument,Monument,1905,1951,34.004193,-88.746686
Our Heros Monument,Main St.,Brooksville,MS,South,Monument,Monument,1911,NA,33.2345659,-88.5779049
Pemberton Place,NA,Picayune,MS,South,Road / Street / Highway,Highway / Roadway,NA,NA,30.5053792,-89.6796615
Pemberton Road,NA,Moss Point,MS,South,Road / Street / Highway,Highway / Roadway,NA,NA,30.3460699,-88.488711
Pickett Road,NA,Moss Point,MS,South,Road / Street / Highway,Highway / Roadway,NA,NA,30.3460699,-88.488711
Pontotoc Confederate Monument,Pontotoc County Courthouse. West Washington And South Liberty,Pontotoc,MS,South,Monument / Courthouse,Monument,1919,NA,34.2478831,-88.998673
Robert E Lee Street,NA,Beaumont,MS,South,Road / Street / Highway,Highway / Roadway,NA,NA,31.1672404,-88.9261484
Robert E. Lee Drive,NA,Tupelo,MS,South,Road / Street / Highway,Highway / Roadway,NA,NA,34.2522904,-88.716453
Robert E. Lee Drive,NA,Greenwood,MS,South,Road / Street / Highway,Highway / Roadway,NA,NA,33.5460602,-90.1855947
Robert E. Lee Drive,NA,New Albany,MS,South,Road / Street / Highway,Highway / Roadway,NA,NA,34.5000663,-89.0392926
Robert E. Lee Drive,NA,Florence,MS,South,Road / Street / Highway,Highway / Roadway,NA,NA,32.1589465,-90.0948954
Robert E. Lee Road,NA,Lucedale,MS,South,Road / Street / Highway,Highway / Roadway,NA,NA,30.6949688,-88.5264501
Robert E. Lee Road,NA,Moss Point,MS,South,Road / Street / Highway,Highway / Roadway,NA,NA,30.3460699,-88.488711
Robert E. Lee Road,NA,Hattiesburg,MS,South,Road / Street / Highway,Highway / Roadway,NA,NA,31.1696967,-89.2973286
Robert E. Lee Street,NA,Lexington,MS,South,Road / Street / Highway,Highway / Roadway,NA,NA,33.1144534,-90.0423049
Robertson Road,NA,Pascagoula,MS,South,Road / Street / Highway,Highway / Roadway,NA,NA,30.3372351,-88.5075136
S Van Dorn,NA,Moss Point,MS,South,Road / Street / Highway,Highway / Roadway,NA,NA,30.3460699,-88.488711
Sons of Confederate Veterans Commemorative License Plate,NA,NA,MS,South,Commemorative License Plate,Commemorative License Plate,NA,NA,32.3103091,-90.2589275
South Forrest Attendance Center,8 Burborne St,Brooklyn,MS,South,School,School,1960,NA,31.0716457,-89.1885757
Stonewall Drive,NA,Indianola,MS,South,Road / Street / Highway,Highway / Roadway,NA,NA,33.4647692,-90.650715
Vaiden Confederate Monument,"State Highway 430 (possibly on the east side of Kennedy Road at 33.333202, -89.753359?)",Vaiden,MS,South,Monument,Monument,1912,NA,33.3393064,-89.8372428
Wheeler Road,NA,Pascagoula,MS,South,Road / Street / Highway,Highway / Roadway,NA,NA,30.3372351,-88.5075136
Women of the Confederacy Monument,New Capitol Grounds,Jackson,MS,South,Monument,Monument,1917,NA,32.3036491,-90.1826192
Confederate Dam,NA,Beaverhead,MT,Not a State,Dam,Other,NA,NA,44.8965919,-113.2658711
Confederate Memorial Fountain,NA,Helena,MT,Not a State,Monument,Monument,1916,NA,46.5883707,-112.0245054
1929 Confederate Reunion Marker,310 N Kings Drive,Charlotte,NC,South,Monument,Monument,1929,NA,35.219115,-80.829244
Army of Tennessee Monument,Hamburger Square,Greensboro,NC,South,Monument,Monument,1986,NA,36.0726354,-79.7919754
Beauregard Drive,NA,Spencer,NC,South,Road / Street / Highway,Highway / Roadway,NA,NA,35.688579,-80.4549699
Beauregard Drive,NA,Salisbury,NC,South,Road / Street / Highway,Highway / Roadway,NA,NA,35.687219,-80.452058
Beauregard Lane,NA,Mebane,NC,South,Road / Street / Highway,Highway / Roadway,NA,NA,36.0867148,-79.2797251
Breckenridge Drive,NA,Wilmington,NC,South,Road / Street / Highway,Highway / Roadway,NA,NA,34.6092315,-78.1175582
Buckner Drive,NA,Wilmington,NC,South,Road / Street / Highway,Highway / Roadway,NA,NA,34.6092315,-78.1175582
Civil War Soldiers Monument,Alexander County Courthouse. 29 W. Main Ave.,Taylorsville,NC,South,Monument / Courthouse,Monument,1959,NA,35.9227633,-81.1758763
Confederate Arsenal,Bradford Avenue,Fayettesville,NC,South,Monument,Monument,1928,NA,35.7595731,-79.0192997
Confederate Avenue,NA,Spencer,NC,South,Road / Street / Highway,Highway / Roadway,NA,NA,35.688579,-80.4549699
Confederate Avenue,NA,Salisbury,NC,South,Road / Street / Highway,Highway / Roadway,NA,NA,35.6849501,-80.4634573
Confederate Memorial,Fort Fisher State Historic Site,Kure Beach,NC,South,Monument,Monument,1921,NA,33.9968399,-77.9072081
Confederate Memorial Drinking Fountain,102 N. Main St. Franklin County Courthouse,Louisburg,NC,South,Monument,Monument,1923,NA,36.1002805,-78.3000377
Confederate Monument,Fort Fisher Historic Site,Wilmington,NC,South,Monument,Monument,1932,NA,33.97158,-77.917789
Confederate Monument,Person County Courthouse,Roxboro,NC,South,Monument / Courthouse,Monument,1931,NA,36.3938497,-78.9843324
Confederate Monument,Wilkes County Courthouse,Wilkesboro,NC,South,Monument / Courthouse,Monument,1998,NA,36.1459649,-81.1606401
Confederate Soldiers Memorial,Phillips St. And Main St.,Franklin,NC,South,Monument,Monument,1909,NA,35.1869099,-83.3713839
Confederate Soldiers Memorial,Old Haywood County Courthouse. 215 N. Main St.,Waynesville,NC,South,Monument / Courthouse,Monument,1940,NA,35.49238,-82.98684
Confederate Soldiers Memorial Drinking Fountain,Lincoln County Courthouse. Court Square Dr. And W. Main St.,Lincolntown,NC,South,Monument / Courthouse,Monument,1911,NA,35.47143,-81.25726
Confederate Soldiers Monument,Gaston County Courthouse. 325 N. Marietta St.,Gastonia,NC,South,Monument / Courthouse,Monument,1912,NA,35.2663037,-81.1829339
Confederate Soldiers Monument,"N. Second St., Facing City Hall Annex",Albemarle,NC,South,Monument,Monument,1925,NA,35.3501426,-80.2000578
Confederate Soldiers Monument,Beaufort,Beufort,NC,South,Monument,Monument,1926,NA,35.7595731,-79.0192997
Confederate Soldiers Monument,"Old Cabarrus County Courthouse, Union St. S.",Concord,NC,South,Monument,Monument,1892,NA,35.4087517,-80.579511
Confederate Soldiers Monument,Broad St. And Water St.,Edenton,NC,South,Monument,Monument,1909,NA,36.056707,-76.6080932
Confederate Soldiers Monument,E. Dobbin Ave. And Morgantown Rd.,Fayettesville,NC,South,Monument,Monument,1902,NA,35.0526641,-78.8783585
Confederate Soldiers Monument,112 Court St.,Gatesville,NC,South,Monument,Monument,1915,NA,36.4035484,-76.7522556
Confederate Soldiers Monument,Hamburger Square,Greensboro,NC,South,Monument,Monument,1985,NA,36.0726354,-79.7919754
Confederate Soldiers Monument,Holly Springs United Methodist Church. 108 Avent Ferry Rd.,Holly Springs,NC,South,Monument,Monument,1923,NA,35.651169,-78.835214
Confederate Soldiers Monument,625 Court St.,Jacksonville,NC,South,Monument,Monument,1957,NA,34.751059,-77.431191
Confederate Soldiers Monument,Kinston-Lenoir County Visitors Center. 101 E. New Bern Rd.,Kinston,NC,South,Monument,Monument,1924,NA,35.2439368,-77.5842987
Confederate Soldiers Monument,Fort Fisher State Historic Site,Kure Beach,NC,South,Monument,Monument,1932,NA,33.9968399,-77.9072081
Confederate Soldiers Monument,Old Courthouse,Lexington,NC,South,Monument,Monument,1905,NA,35.8240265,-80.2533838
Confederate Soldiers Monument,N. Main St.,Louisburg,NC,South,Monument,Monument,1914,NA,36.1083507,-78.2964696
Confederate Soldiers Monument,Old Courthouse 132 E. Union St.,Morgantown,NC,South,Monument,Monument,1918,NA,35.7595731,-79.0192997
Confederate Soldiers Monument,Old Catawba County Courthouse. 30 N. College Ave.,Newton,NC,South,Monument,Monument,1907,NA,35.663391,-81.22214
Confederate Soldiers Monument,210 N. Main St.,Oxford,NC,South,Monument,Monument,1909,NA,36.3099684,-78.587931
Confederate Soldiers Monument,Old Chatham County Courthouse 15-501 And 64,Pittsboro,NC,South,Monument,Monument,1907,NA,35.720509,-79.177168
Confederate Soldiers Monument,Lee St. And W. Washington St.,Rockingham,NC,South,Monument,Monument,1930,NA,34.939374,-79.774528
Confederate Soldiers Monument,Battle Park. Falls Rd. And Stonewall Dr.,Rocky Mount,NC,South,Monument,Monument,1917,NA,35.962044,-77.805419
Confederate Soldiers Monument,W. Innes St. And Church St.,Salisbury,NC,South,Monument,Monument,1909,NA,35.668367,-80.471056
Confederate Soldiers Monument,301 N. Greene St.,Snow Hill,NC,South,Monument,Monument,1929,NA,35.455695,-77.670372
Confederate Soldiers Monument,Old Iredell County Courthouse. S. Center And Court Streets,Middletown,NC,South,Monument,Monument,2001,NA,35.478177,-80.012518
Confederate Soldiers Monument,Town Common. N. Main St.,Tarboro,NC,South,Monument,Monument,1904,NA,35.900375,-77.536182
Confederate Soldiers Monument,E. Ninth St. And Maple St.,Weldon,NC,South,Monument,Monument,1908,NA,36.420518,-77.598471
Confederate Soldiers Monument,S. 3rd St. And Dock St.,Wilmington,NC,South,Monument,Monument,1924,NA,34.234271,-77.945903
Confederate Soldiers Monument,S. King St. And Dundee St.,Windsor,NC,South,Monument,Monument,1896,NA,35.997141,-76.945556
Confederate Soldiers Monument,Old Caswell County Courthouse. 144 Courthouse Square,Yanceyville,NC,South,Monument,Monument,1921,NA,36.403489,-79.336346
Confederate Soldiers Monument,Old City Hall. 600 E. Trade St.,Charlotte,NC,South,Monument,Monument,1977,NA,35.222485,-80.838355
Confederate Soldiers Monument,Randolph County Courthouse. 176 E. Salisbury St.,Asheboro,NC,South,Monument / Courthouse,Monument,1911,NA,35.706131,-79.813111
Confederate Soldiers Monument,Pender County Courthouse. 100 N. Wright St.,Burgaw,NC,South,Monument / Courthouse,Monument,1914,NA,34.550561,-77.926312
Confederate Soldiers Monument,Yancey County Courthouse. 110 Town Square,Burnsville,NC,South,Monument / Courthouse,Monument,2009,NA,35.917036,-82.298894
Confederate Soldiers Monument,Sampson County Courthouse. 101 E. Main St.,Clinton,NC,South,Monument / Courthouse,Monument,1916,NA,34.9980158,-78.3238042
Confederate Soldiers Monument,Tyrrell County Courthouse. 403 Main St.,Columbia,NC,South,Monument / Courthouse,Monument,1902,NA,35.9175704,-76.2518954
Confederate Soldiers Monument,Currituck Cunty Courthouse,Currituck,NC,South,Monument / Courthouse,Monument,1918,NA,36.4465659,-76.0142968
Confederate Soldiers Monument,Old Stokes County Courthouse,Danbury,NC,South,Monument / Courthouse,Monument,1990,NA,36.4093047,-80.2058831
Confederate Soldiers Monument,Old Surry County Courthouse. Main St.,Dobson,NC,South,Monument / Courthouse,Monument,2000,NA,36.3852517,-80.7154028
Confederate Soldiers Monument,Old Durham County Courthouse. 200 E. Main St.,Durham,NC,South,Monument / Courthouse,Monument,1924,NA,35.9939212,-78.8992095
Confederate Soldiers Monument,Pasquotank County Courthouse. 206 E. Main St.,Elizabeth City,NC,South,Monument / Courthouse,Monument,1911,NA,36.3004731,-76.2224481
Confederate Soldiers Monument,Alamance County Courthouse. Main And Elm Streets,Graham,NC,South,Monument / Courthouse,Monument,1914,NA,36.06954,-79.40035
Confederate Soldiers Monument,Pitt County Courthouse. 100 W. Third St.,Greenville,NC,South,Monument / Courthouse,Monument,1914,NA,35.6137505,-77.3728306
Confederate Soldiers Monument,Vance County Courthouse. 156 Church St.,Hendersonville,NC,South,Monument / Courthouse,Monument,1903,NA,35.31444,-82.46017
Confederate Soldiers Monument,Perquimans County Courthouse. 128 N. Church St.,Hertford,NC,South,Monument / Courthouse,Monument,1912,NA,36.1893383,-76.4657108
Confederate Soldiers Monument,Scotland County Courthouse. 212 Biggs St.,Laurinburg,NC,South,Monument / Courthouse,Monument,1912,NA,34.77589,-79.4605
Confederate Soldiers Monument,Caldwell County Courthouse. 216 Main St. Nw,Lenoir,NC,South,Monument / Courthouse,Monument,1910,NA,35.914790000000004,-81.53972
Confederate Soldiers Monument,Robeson County Courthouse. 500 N. Elm St.,Lumberton,NC,South,Monument / Courthouse,Monument,1907,NA,34.6200639,-79.0082079
Confederate Soldiers Monument,Person County Courthouse. 105 S. Main St.,Roxboro,NC,South,Monument / Courthouse,Monument,1922,NA,36.3938497,-78.9843324
Confederate Soldiers Monument,Rutherford County Courthouse. 229 N. Main St.,Rutherfordton,NC,South,Monument / Courthouse,Monument,1910,NA,35.3690406,-81.9575585
Confederate Soldiers Monument,Cleveland County Courthouse,Shelby,NC,South,Monument / Courthouse,Monument,1906,NA,35.2908659,-81.5392019
Confederate Soldiers Monument,Jones County Courthouse. 101 Market St.,Trenton,NC,South,Monument / Courthouse,Monument,1960,NA,35.0631616,-77.3533637
Confederate Soldiers Monument,Anson County Courthouse. 114 N. Greene St.,Wadesboro,NC,South,Monument / Courthouse,Monument,1906,NA,34.9669913,-80.0767427
Confederate Soldiers Monument,Warren County Courthouse. 109 S. Main St.,Warrenton,NC,South,Monument / Courthouse,Monument,1913,NA,36.3982513,-78.1552497
Confederate Soldiers Monument,Courthouse Square. 4Th St. And Liberty St.,Winston-Salem,NC,South,Monument / Courthouse,Monument,1905,NA,36.09833,-80.2330951
Confederate Soldiers Monument,Hertford County Courthouse. 701 King St.,Winton,NC,South,Monument / Courthouse,Monument,1913,NA,36.397028,-76.933703
Confederate Soldiers Monument,Old Jackson County Courthouse. Keener St. And Savannah Rd.,Sylvia,NC,South,Monument,Monument,1915,NA,35.373779999999996,-83.22764
Confederate Street,NA,Monroe,NC,South,Road / Street / Highway,Highway / Roadway,NA,NA,34.9867785,-80.5213889
Confederate Street,NA,Lexington,NC,South,Road / Street / Highway,Highway / Roadway,NA,NA,35.849899,-80.2604891
Confederate Street,NA,Windsor,NC,South,Road / Street / Highway,Highway / Roadway,NA,NA,36.0004523,-76.959712
Confederate Women's Monument,State Capitol Grounds,Raleigh,NC,South,Monument,Monument,1914,NA,35.7795897,-78.6381787
CSS Neuse Confederate Ironclad Gunboat Monument,South Heritage Street And West Caswell Street,Kinston,NC,South,Monument,Monument,NA,NA,35.2604229,-77.5896209
Davie County War Memorial,Mocksville Town Square Lawn,Mocksville,NC,South,Monument,Monument,1987,NA,35.8940263,-80.5614494
Early Drive,NA,Wilmington,NC,South,Road / Street / Highway,Highway / Roadway,NA,NA,34.6092315,-78.1175582
First Confederate Flag Marker and Monument,Franklin County Courthouse,Louisburg,NC,South,Monument / Courthouse,Monument,1923,NA,36.09877,-78.30099
Forest City Confederate Monument,East Main Street And Depot Street,Forest City,NC,South,Monument,Monument,1932,NA,35.3326664,-81.8656339
Fort Bragg,NA,Fort Bragg,NC,South,Military Base,Military Base,1918,NA,35.1420888,-79.0715766
Gaston County Confederate Soldier Monument,Historic Gaston County Courthouse. N. Gaston St.,Dallas,NC,South,Monument / Courthouse,Monument,2003,NA,35.3162766,-81.1758616
General Lee Avenue,NA,Fayetteville,NC,South,Road / Street / Highway,Highway / Roadway,NA,NA,35.0609098,-78.9045332
General Lee Avenue,NA,Dunn,NC,South,Road / Street / Highway,Highway / Roadway,NA,NA,35.316446,-78.6160706
General Lee Lane,NA,Clinton,NC,South,Road / Street / Highway,Highway / Roadway,NA,NA,34.9269155,-78.4145916
General Lee Street,NA,Spring Lake,NC,South,Road / Street / Highway,Highway / Roadway,NA,NA,35.2463016,-78.8808408
General Robert Hoke Monument,British Rd. And Nc Hwy 70,Kinston,NC,South,Monument,Monument,1920,NA,35.2626635,-77.5816353
George Davis Statue,South 3rd Street And Market Street,Wilmington,NC,South,Monument,Monument,1909,NA,34.235566,-77.945756
Henry Lawson Wyatt Memorial Fountain,Town Common. N. Main St.,Tarboro,NC,South,Monument,Monument,1910,NA,35.900375,-77.536182
Henry Lawson Wyatt Monument,State Capitol Grounds,Raleigh,NC,South,Monument,Monument,1912,NA,35.7795897,-78.6381787
Hill Lane,NA,Mebane,NC,South,Road / Street / Highway,Highway / Roadway,NA,NA,36.0867148,-79.2797251
Hoke County,NA,Raeford,NC,South,County,County,1911,NA,34.9809995,-79.2241997
Jeb Stuart Drive,NA,Wilmington,NC,South,Road / Street / Highway,Highway / Roadway,NA,NA,34.6092315,-78.1175582
Jefferson Davis Monument,Old Airport Road,Fletcher,NC,South,Monument,Monument,1931,NA,35.4404372,-82.4981942
Jefferson Davis Plaque,S. Tyrone St. And Forth St.,Charlotte,NC,South,Monument,Monument,NA,NA,35.2270869,-80.8431267
Jefferson Davis Street,NA,Hope Mills,NC,South,Road / Street / Highway,Highway / Roadway,NA,NA,34.9644181,-78.9485054
Jefferson Davis Street,NA,Charlotte,NC,South,Road / Street / Highway,Highway / Roadway,NA,NA,35.2549282,-80.8323904
Johnston Drive,NA,Wilmington,NC,South,Road / Street / Highway,Highway / Roadway,NA,NA,34.6092315,-78.1175582
Last Meetings of the Confederate Cabinet Marker,122 S. Tyrone St.,Charlotte,NC,South,Monument,Monument,1915,NA,35.226729,-80.8437836
Lee County,NA,Sanford,NC,South,County,County,1907,NA,35.4798757,-79.1802994
Longstreet Drive,NA,Wilmington,NC,South,Road / Street / Highway,Highway / Roadway,NA,NA,34.6092315,-78.1175582
Memorial Drinking Fountain,Wilson County Courthouse. 115 Nash St. E.,Wilson,NC,South,Monument / Courthouse,Monument,1926,NA,35.725405,-77.910327
Mitchell County's Confederate Dead,Mitchell County Courthouse,Bakersville,NC,South,Monument / Courthouse,Monument,NA,NA,36.015507,-82.15819
Monument to 60th Regiment North Carolina Volunteers,College St. And Court Plaza,Asheville,NC,South,Monument / Courthouse,Monument,1905,NA,35.596245,-82.548873
"Monument to the ""Confederate Grays"" 20th Regiment North Carolina State Troops",W. Main St. And N. Faison Ave.,Faison,NC,South,Monument,Monument,1932,NA,35.124041,-78.135413
North Carolina Confederate Veterans Forest,Blue Ridge Parkway,Waynesville,NC,South,Forest,Other,1956,NA,35.4082464,-83.0465408
Old Jefferson Davis Highway,NA,NA,NC,South,Road / Street / Highway,Highway / Roadway,NA,NA,35.5238047,-79.1857503
Pemberton Drive,NA,Wilmington,NC,South,Road / Street / Highway,Highway / Roadway,NA,NA,34.6092315,-78.1175582
Pender County,NA,Burgaw,NC,South,County,County,1875,NA,34.5521113,-77.926098
Pettigrew Drive,NA,Wilmington,NC,South,Road / Street / Highway,Highway / Roadway,NA,NA,34.6092315,-78.1175582
Pickett Avenue,NA,Spencer,NC,South,Road / Street / Highway,Highway / Roadway,NA,NA,35.688579,-80.4549699
Pickett Avenue,NA,Salisbury,NC,South,Road / Street / Highway,Highway / Roadway,NA,NA,35.690707,-80.450133
Pickett Lane,NA,Mebane,NC,South,Road / Street / Highway,Highway / Roadway,NA,NA,36.0867148,-79.2797251
Robert E. Lee Drive,NA,Flat Rock,NC,South,Road / Street / Highway,Highway / Roadway,NA,NA,35.2700064,-82.439332
Robert E. Lee Drive,NA,Sanford,NC,South,Road / Street / Highway,Highway / Roadway,NA,NA,35.4313268,-79.1316611
Robert E. Lee Drive,NA,Watha,NC,South,Road / Street / Highway,Highway / Roadway,NA,NA,34.6092315,-78.1175582
Robert E. Lee Drive,NA,Kinston,NC,South,Road / Street / Highway,Highway / Roadway,NA,NA,35.250086,-77.5167015
Robert E. Lee Drive,NA,Wilmington,NC,South,Road / Street / Highway,Highway / Roadway,NA,NA,34.1897826,-77.9000097
